[
{"longitude": "-34.898514", "iptu": "2651", "price": "650000", "title": "Apartamento na Rua Mamanguape, 518, Boa Viagem em Recife, por R$ 650.000 - VivaReal", "url": "https://www.vivareal.com.br/imovel/apartamento-3-quartos-boa-viagem-bairros-recife-com-garagem-110m2-venda-RS650000-id-87104290/", "garage": "2", "latitude": "-8.115201", "rooms": "3", "bathrooms": "2", "condominium_fee": "R$ 750", "address": "Rua Mamanguape, 518 - Boa Viagem, Recife - PE", "area": "110"},
{"longitude": "-34.899793", "iptu": "4000", "price": "649000", "title": "Apartamento na Rua Mamanguape, 665, Boa Viagem em Recife, por R$ 649.000 - VivaReal", "url": "https://www.vivareal.com.br/imovel/apartamento-3-quartos-boa-viagem-bairros-recife-com-garagem-160m2-venda-RS649000-id-87497334/", "garage": "2", "latitude": "-8.114758", "rooms": "3", "bathrooms": "3", "condominium_fee": "R$ 790", "address": "Rua Mamanguape, 665 - Boa Viagem, Recife - PE", "area": "160"},
{"longitude": "-34.901634", "iptu": "1790", "price": "550000", "title": "Apartamento na Rua Arnaud Holanda, 54, Boa Viagem em Recife, por R$ 550.000 - VivaReal", "url": "https://www.vivareal.com.br/imovel/apartamento-3-quartos-boa-viagem-bairros-recife-com-garagem-126m2-venda-RS550000-id-87027467/", "garage": "2", "latitude": "-8.121334", "rooms": "3", "bathrooms": "2", "condominium_fee": "R$ 976", "address": "Rua Arnaud Holanda, 54 - Boa Viagem, Recife - PE", "area": "126"},
{"longitude": "-34.887836", "iptu": "3500", "price": "1050000", "title": "Apartamento na Avenida Conselheiro Aguiar, 1527, Boa Viagem em Recife, por R$ 1.050.000 - VivaReal", "url": "https://www.vivareal.com.br/imovel/apartamento-3-quartos-boa-viagem-bairros-recife-com-garagem-108m2-venda-RS1050000-id-87676956/", "garage": "2", "latitude": "-8.10364", "rooms": "3", "bathrooms": "2", "condominium_fee": "R$ 660", "address": "Avenida Conselheiro Aguiar, 1527 - Boa Viagem, Recife - PE", "area": "108"},
{"latitude": "-8.119749", "rooms": "3", "bathrooms": "2", "longitude": "-34.897569", "condominium_fee": "R$ 900", "address": "Rua dos Navegantes, 74 - Boa Viagem, Recife - PE", "title": "Apartamento na Rua dos Navegantes, 74, Boa Viagem em Recife, por R$ 650.000 - VivaReal", "url": "https://www.vivareal.com.br/imovel/apartamento-3-quartos-boa-viagem-bairros-recife-com-garagem-150m2-venda-RS650000-id-85548106/", "garage": "2", "area": "150", "price": "650000"},
{"longitude": "-34.902896", "iptu": "2300", "price": "630000", "title": "Apartamento na Rua Visconde de Jequitinhonha, 100, Boa Viagem em Recife, por R$ 630.000 - VivaReal", "url": "https://www.vivareal.com.br/imovel/apartamento-3-quartos-boa-viagem-bairros-recife-com-garagem-110m2-venda-RS630000-id-85983630/", "garage": "2", "latitude": "-8.131706", "rooms": "3", "bathrooms": "3", "condominium_fee": "R$ 800", "address": "Rua Visconde de Jequitinhonha, 100 - Boa Viagem, Recife - PE", "area": "110"},
{"latitude": "-8.141343", "title": "Lan\u00e7amento Pernambuco Construtora Boa Viagem Prince - Apartamento - Boa Viagem, Recife - VivaReal", "longitude": "-34.905784", "url": "https://www.vivareal.com.br/imoveis-lancamento/boa-viagem-prince-9267/"},
{"longitude": "-34.893136", "iptu": "2500", "price": "550000", "title": "Apartamento na Rua Arist\u00eddes Muniz, 121, Boa Viagem em Recife, por R$ 550.000 - VivaReal", "url": "https://www.vivareal.com.br/imovel/apartamento-3-quartos-boa-viagem-bairros-recife-com-garagem-89m2-venda-RS550000-id-84513668/", "garage": "2", "latitude": "-8.109504", "rooms": "3", "bathrooms": "3", "condominium_fee": "R$ 550", "address": "Rua Arist\u00eddes Muniz, 121 - Boa Viagem, Recife - PE", "area": "89"},
{"latitude": "-8.127395", "rooms": "2", "bathrooms": "2", "longitude": "-34.906003", "price": "285000", "address": "Rua General Americano Freire, 780 - Boa Viagem, Recife - PE", "title": "Apartamento na Rua General Americano Freire, 780, Boa Viagem em Recife, por R$ 285.000 - VivaReal", "url": "https://www.vivareal.com.br/imovel/apartamento-2-quartos-boa-viagem-bairros-recife-com-garagem-60m2-venda-RS285000-id-86004687/", "garage": "1", "area": "60"},
{"longitude": "-34.896076", "iptu": "4100", "price": "1000000", "title": "Apartamento na Avenida Boa Viagem, Boa Viagem em Recife, por R$ 1.000.000 - VivaReal", "url": "https://www.vivareal.com.br/imovel/apartamento-3-quartos-boa-viagem-bairros-recife-com-garagem-183m2-venda-RS1000000-id-85513770/", "garage": "2", "latitude": "-8.122141", "rooms": "3", "bathrooms": "1", "condominium_fee": "R$ 2.300", "address": "Avenida Boa Viagem - Boa Viagem, Recife - PE", "area": "183"},
{"latitude": "-8.138206", "rooms": "3", "bathrooms": "2", "longitude": "-34.906854", "price": "350000", "address": "Rua S\u00e1 e Souza - Boa Viagem, Recife - PE", "title": "Apartamento na Rua S\u00e1 e Souza, Boa Viagem em Recife, por R$ 350.000 - VivaReal", "url": "https://www.vivareal.com.br/imovel/apartamento-3-quartos-boa-viagem-bairros-recife-com-garagem-68m2-venda-RS350000-id-83448636/", "garage": "1", "area": "68"},
{"latitude": "-8.109005", "title": "Lan\u00e7amento Pernambuco Construtora Boulevard Prince - Apartamento - Boa Viagem, Recife - VivaReal", "longitude": "-34.896921", "url": "https://www.vivareal.com.br/imoveis-lancamento/boulevard-prince-9268/"},
{"longitude": "-34.887836", "iptu": "3500", "price": "950000", "title": "Apartamento na Avenida Conselheiro Aguiar, 1527, Boa Viagem em Recife, por R$ 950.000 - VivaReal", "url": "https://www.vivareal.com.br/imovel/apartamento-3-quartos-boa-viagem-bairros-recife-com-garagem-108m2-venda-RS950000-id-87676456/", "garage": "2", "latitude": "-8.10364", "rooms": "3", "bathrooms": "2", "condominium_fee": "R$ 660", "address": "Avenida Conselheiro Aguiar, 1527 - Boa Viagem, Recife - PE", "area": "108"},
{"latitude": "-8.116145", "rooms": "3", "bathrooms": "3", "longitude": "-34.899021", "price": "580000", "address": "Rua F\u00e9lix de Brito e Melo, 200 - Boa Viagem, Recife - PE", "title": "Apartamento na Rua F\u00e9lix de Brito e Melo, 200, Boa Viagem em Recife, por R$ 580.000 - VivaReal", "url": "https://www.vivareal.com.br/imovel/apartamento-3-quartos-boa-viagem-bairros-recife-com-garagem-95m2-venda-RS580000-id-86345038/", "garage": "2", "area": "95"},
{"latitude": "-8.116567", "rooms": "4", "bathrooms": "4", "longitude": "-34.903155", "price": "1270000", "address": "Rua Padre Carapuceiro, 815 - Boa Viagem, Recife - PE", "title": "Apartamento na Rua Padre Carapuceiro, 815, Boa Viagem em Recife, por R$ 1.270.000 - VivaReal", "url": "https://www.vivareal.com.br/imovel/apartamento-4-quartos-boa-viagem-bairros-recife-com-garagem-132m2-venda-RS1270000-id-84124476/", "garage": "2", "area": "132"},
{"latitude": "-8.108419", "title": "Lan\u00e7amento Pernambuco Construtora Promenade Prince - Apartamento - Boa Viagem, Recife - VivaReal", "longitude": "-34.897301", "url": "https://www.vivareal.com.br/imoveis-lancamento/promenade-prince-9272/"},
{"latitude": "-8.1144223", "title": "Lan\u00e7amento Moura Dubeux Beach Class Conventions e Flats - Apartamento - Boa Viagem, Recife - VivaReal", "longitude": "-34.89806229999999", "url": "https://www.vivareal.com.br/imoveis-lancamento/beach-class-conventions-e-flats-6688/"},
{"latitude": "-8.140953", "rooms": "3", "bathrooms": "3", "longitude": "-34.908107", "price": "450000", "address": "Rua S\u00e1 e Souza, 1020 - Boa Viagem, Recife - PE", "title": "Apartamento na Rua S\u00e1 e Souza, 1020, Boa Viagem em Recife, por R$ 450.000 - VivaReal", "url": "https://www.vivareal.com.br/imovel/apartamento-3-quartos-boa-viagem-bairros-recife-com-garagem-120m2-venda-RS450000-id-87253849/", "garage": "1", "area": "120"},
{"longitude": "-34.901362", "iptu": "7100", "price": "1600000", "title": "Apartamento na Avenida Engenheiro Domingos Ferreira, 4403, Boa Viagem em Recife, por R$ 1.600.000 - VivaReal", "url": "https://www.vivareal.com.br/imovel/apartamento-4-quartos-boa-viagem-bairros-recife-com-garagem-360m2-venda-RS1600000-id-84362988/", "garage": "3", "latitude": "-8.126944", "rooms": "4", "bathrooms": "5", "condominium_fee": "R$ 1.200", "address": "Avenida Engenheiro Domingos Ferreira, 4403 - Boa Viagem, Recife - PE", "area": "360"},
{"longitude": "-34.906314", "iptu": "1900", "price": "490000", "title": "Apartamento na Rua Professor Augusto Lins e Silva, Boa Viagem em Recife, por R$ 490.000 - VivaReal", "url": "https://www.vivareal.com.br/imovel/apartamento-3-quartos-boa-viagem-bairros-recife-com-garagem-140m2-venda-RS490000-id-86512472/", "garage": "1", "latitude": "-8.141113", "rooms": "3", "bathrooms": "3", "condominium_fee": "R$ 900", "address": "Rua Professor Augusto Lins e Silva - Boa Viagem, Recife - PE", "area": "140"},
{"latitude": "-8.141072", "rooms": "3", "bathrooms": "3", "longitude": "-34.908892", "condominium_fee": "R$ 650", "address": "Rua General Salgado - Boa Viagem, Recife - PE", "title": "Apartamento na Rua General Salgado, Boa Viagem em Recife, por R$ 350.000 - VivaReal", "url": "https://www.vivareal.com.br/imovel/apartamento-3-quartos-boa-viagem-bairros-recife-com-garagem-120m2-venda-RS350000-id-86494541/", "garage": "1", "area": "120", "price": "350000"},
{"latitude": "-8.138637", "rooms": "3", "bathrooms": "3", "longitude": "-34.904632", "condominium_fee": "R$ 700", "address": "Rua Visconde de Jequitinhonha, 1294 - Boa Viagem, Recife - PE", "title": "Apartamento na Rua Visconde de Jequitinhonha, 1294, Boa Viagem em Recife, por R$ 450.000 - VivaReal", "url": "https://www.vivareal.com.br/imovel/apartamento-3-quartos-boa-viagem-bairros-recife-com-garagem-70m2-venda-RS450000-id-85972317/", "garage": "1", "area": "70", "price": "450000"},
{"longitude": "-34.907679", "iptu": "1100", "price": "315000", "title": "Apartamento na Rua Jonatas de Vasconcelos, 427, Boa Viagem em Recife, por R$ 315.000 - VivaReal", "url": "https://www.vivareal.com.br/imovel/apartamento-2-quartos-boa-viagem-bairros-recife-com-garagem-56m2-venda-RS315000-id-84015519/", "garage": "1", "latitude": "-8.124973", "rooms": "2", "bathrooms": "2", "condominium_fee": "R$ 500", "address": "Rua Jonatas de Vasconcelos, 427 - Boa Viagem, Recife - PE", "area": "56"},
{"latitude": "-8.109538", "title": "Lan\u00e7amento Aveloz Morada das Palmeiras - Apartamento - Boa Viagem, Recife - VivaReal", "longitude": "-34.892639", "url": "https://www.vivareal.com.br/imoveis-lancamento/morada-das-palmeiras-9207/"},
{"url": "https://www.vivareal.com.br/imovel/apartamento-3-quartos-boa-viagem-bairros-recife-com-garagem-75m2-venda-RS270000-id-82499759/", "rooms": "3", "bathrooms": "2", "iptu": "86", "condominium_fee": "R$ 330", "address": "Boa Viagem, Recife - PE", "title": "Apartamento 75 m\u00b2 em Boa Viagem em Recife, por R$ 270.000 - VivaReal", "price": "270000", "garage": "1", "area": "75"},
{"latitude": "-8.119763", "rooms": "4", "bathrooms": "4", "longitude": "-34.895606", "condominium_fee": "R$ 1.400", "address": "Rua dos Navegantes - Boa Viagem, Recife - PE", "title": "Apartamento na Rua dos Navegantes, Boa Viagem em Recife, por R$ 1.500.000 - VivaReal", "url": "https://www.vivareal.com.br/imovel/apartamento-4-quartos-boa-viagem-bairros-recife-com-garagem-248m2-venda-RS1500000-id-84781726/", "garage": "3", "area": "248", "price": "1500000"},
{"longitude": "-34.906149", "iptu": "1200", "price": "420000", "title": "Apartamento na Rua Agenor Lopes, 314, Boa Viagem em Recife, por R$ 420.000 - VivaReal", "url": "https://www.vivareal.com.br/imovel/apartamento-3-quartos-boa-viagem-bairros-recife-com-garagem-96m2-venda-RS420000-id-85503978/", "garage": "1", "latitude": "-8.123695", "rooms": "3", "bathrooms": "3", "condominium_fee": "R$ 600", "address": "Rua Agenor Lopes, 314 - Boa Viagem, Recife - PE", "area": "96"},
{"latitude": "-8.124973", "rooms": "2", "bathrooms": "2", "longitude": "-34.907679", "condominium_fee": "R$ 500", "address": "Rua Jonatas de Vasconcelos, 427 - Boa Viagem, Recife - PE", "title": "Apartamento na Rua Jonatas de Vasconcelos, 427, Boa Viagem em Recife, por R$ 335.000 - VivaReal", "url": "https://www.vivareal.com.br/imovel/apartamento-2-quartos-boa-viagem-bairros-recife-com-garagem-54m2-venda-RS335000-id-85532666/", "garage": "1", "area": "54", "price": "335000"},
{"longitude": "-34.90724", "iptu": "513", "price": "250000", "title": "Apartamento na Rua Coronel Aniz\u00edo Rodrigues Coelho, 168, Boa Viagem em Recife, por R$ 250.000 - VivaReal", "url": "https://www.vivareal.com.br/imovel/apartamento-3-quartos-boa-viagem-bairros-recife-com-garagem-87m2-venda-RS250000-id-85522063/", "garage": "2", "latitude": "-8.122612", "rooms": "3", "bathrooms": "2", "condominium_fee": "R$ 840", "address": "Rua Coronel Aniz\u00edo Rodrigues Coelho, 168 - Boa Viagem, Recife - PE", "area": "87"},
{"latitude": "-8.118969", "rooms": "4", "bathrooms": "2", "longitude": "-34.899638", "condominium_fee": "R$ 1.000", "address": "Rua Dhalia, 304 - Boa Viagem, Recife - PE", "title": "Apartamento na Rua Dhalia, 304, Boa Viagem em Recife, por R$ 650.000 - VivaReal", "url": "https://www.vivareal.com.br/imovel/apartamento-4-quartos-boa-viagem-bairros-recife-com-garagem-150m2-venda-RS650000-id-86076886/", "garage": "2", "area": "150", "price": "650000"},
{"latitude": "-8.111614", "rooms": "4", "bathrooms": "5", "longitude": "-34.891066", "price": "1800000", "address": "Rua dos Navegantes, 2475 - Boa Viagem, Recife - PE", "title": "Apartamento na Rua dos Navegantes, 2475, Boa Viagem em Recife, por R$ 1.800.000 - VivaReal", "url": "https://www.vivareal.com.br/imovel/apartamento-4-quartos-boa-viagem-bairros-recife-com-garagem-214m2-venda-RS1800000-id-85697063/", "garage": "3", "area": "214"},
{"longitude": "-34.898209", "iptu": "1", "price": "575000", "title": "Apartamento na Rua Ant\u00f4nio Falc\u00e3o, 1000, Boa Viagem em Recife, por R$ 575.000 - VivaReal", "url": "https://www.vivareal.com.br/imovel/apartamento-3-quartos-boa-viagem-bairros-recife-com-garagem-81m2-venda-RS575000-id-83700822/", "garage": "2", "latitude": "-8.114369", "rooms": "3", "bathrooms": "3", "condominium_fee": "R$ 11", "address": "Rua Ant\u00f4nio Falc\u00e3o, 1000 - Boa Viagem, Recife - PE", "area": "81"},
{"latitude": "-8.116232", "title": "Lan\u00e7amento Moura Dubeux Jardim das Ac\u00e1cias - Apartamento - Boa Viagem, Recife - VivaReal", "longitude": "-34.899082", "url": "https://www.vivareal.com.br/imoveis-lancamento/jardim-das-acacias-6672/"},
{"longitude": "-34.884422", "iptu": "270", "price": "780000", "title": "Apartamento na Rua Capit\u00e3o Rebelinho, 679, Boa Viagem em Recife, por R$ 780.000 - VivaReal", "url": "https://www.vivareal.com.br/imovel/apartamento-3-quartos-boa-viagem-bairros-recife-com-garagem-105m2-venda-RS780000-id-84531825/", "garage": "2", "latitude": "-8.09712", "rooms": "3", "bathrooms": "3", "condominium_fee": "R$ 900", "address": "Rua Capit\u00e3o Rebelinho, 679 - Boa Viagem, Recife - PE", "area": "105"},
{"longitude": "-34.90435", "iptu": "258", "price": "570000", "title": "Apartamento na Rua Dom Jos\u00e9 Lopes, 626, Boa Viagem em Recife, por R$ 570.000 - VivaReal", "url": "https://www.vivareal.com.br/imovel/apartamento-3-quartos-boa-viagem-bairros-recife-com-garagem-120m2-venda-RS570000-id-80751020/", "garage": "2", "latitude": "-8.126603", "rooms": "3", "bathrooms": "3", "condominium_fee": "R$ 730", "address": "Rua Dom Jos\u00e9 Lopes, 626 - Boa Viagem, Recife - PE", "area": "120"},
{"latitude": "-8.122095", "rooms": "4", "bathrooms": "4", "longitude": "-34.897165", "price": "1100000", "address": "Rua Serinha\u00e9m, 44 - Boa Viagem, Recife - PE", "title": "Apartamento na Rua Serinha\u00e9m, 44, Boa Viagem em Recife, por R$ 1.100.000 - VivaReal", "url": "https://www.vivareal.com.br/imovel/apartamento-4-quartos-boa-viagem-bairros-recife-com-garagem-140m2-venda-RS1100000-id-84458116/", "garage": "2", "area": "140"},
{"latitude": "-8.11207", "rooms": "3", "bathrooms": "3", "longitude": "-34.902763", "price": "598500", "address": "Rua Ant\u00f4nio Falc\u00e3o, 1013 - Boa Viagem, Recife - PE", "title": "Apartamento na Rua Ant\u00f4nio Falc\u00e3o, 1013, Boa Viagem em Recife, por R$ 598.500 - VivaReal", "url": "https://www.vivareal.com.br/imovel/apartamento-3-quartos-boa-viagem-bairros-recife-com-garagem-81m2-venda-RS598500-id-87216611/", "garage": "2", "area": "81"},
{"longitude": "-34.900585", "iptu": "296", "price": "600000", "title": "Apartamento na Avenida Boa Viagem, 5072, Boa Viagem em Recife, por R$ 600.000 - VivaReal", "url": "https://www.vivareal.com.br/imovel/apartamento-3-quartos-boa-viagem-bairros-recife-com-garagem-123m2-venda-RS600000-id-86106825/", "garage": "2", "latitude": "-8.133505", "rooms": "3", "bathrooms": "2", "condominium_fee": "R$ 1.350", "address": "Avenida Boa Viagem, 5072 - Boa Viagem, Recife - PE", "area": "123"},
{"longitude": "-34.903714", "iptu": "2900", "price": "720000", "title": "Apartamento na Rua Visconde de Jequitinhonha, 523, Boa Viagem em Recife, por R$ 720.000 - VivaReal", "url": "https://www.vivareal.com.br/imovel/apartamento-3-quartos-boa-viagem-bairros-recife-com-garagem-109m2-venda-RS720000-id-86351873/", "garage": "2", "latitude": "-8.125651", "rooms": "3", "bathrooms": "3", "condominium_fee": "R$ 775", "address": "Rua Visconde de Jequitinhonha, 523 - Boa Viagem, Recife - PE", "area": "109"},
{"latitude": "-8.111634", "title": "Lan\u00e7amento Moura Dubeux Beach Class Santa Maria - Apartamento - Boa Viagem, Recife - VivaReal", "longitude": "-34.896103", "url": "https://www.vivareal.com.br/imoveis-lancamento/beach-class-santa-maria-6687/"},
{"latitude": "-8.116756", "rooms": "4", "bathrooms": "4", "longitude": "-34.897922", "price": "735000", "address": "Rua F\u00e9lix de Brito e Melo, 605 - Boa Viagem, Recife - PE", "title": "Apartamento na Rua F\u00e9lix de Brito e Melo, 605, Boa Viagem em Recife, por R$ 735.000 - VivaReal", "url": "https://www.vivareal.com.br/imovel/apartamento-4-quartos-boa-viagem-bairros-recife-com-garagem-200m2-venda-RS735000-id-83873727/", "garage": "2", "area": "200"},
{"url": "https://www.vivareal.com.br/imovel/apartamento-3-quartos-boa-viagem-bairros-recife-com-garagem-72m2-venda-RS410000-id-88016470/", "rooms": "3", "bathrooms": "2", "iptu": "120", "condominium_fee": "R$ 300", "address": "Boa Viagem, Recife - PE", "title": "Apartamento 72 m\u00b2 em Boa Viagem em Recife, por R$ 410.000 - VivaReal", "price": "410000", "garage": "1", "area": "72"},
{"longitude": "-34.904086", "iptu": "2300", "price": "590000", "title": "Apartamento na Rua Visconde de Jequitinhonha, 1500, Boa Viagem em Recife, por R$ 590.000 - VivaReal", "url": "https://www.vivareal.com.br/imovel/apartamento-3-quartos-boa-viagem-bairros-recife-com-garagem-96m2-venda-RS590000-id-87151574/", "garage": "1", "latitude": "-8.138979", "rooms": "3", "bathrooms": "3", "condominium_fee": "R$ 900", "address": "Rua Visconde de Jequitinhonha, 1500 - Boa Viagem, Recife - PE", "area": "96"},
{"longitude": "-34.906314", "iptu": "750", "price": "1000000", "title": "Apartamento na Rua Professor Augusto Lins e Silva, Boa Viagem em Recife, por R$ 1.000.000 - VivaReal", "url": "https://www.vivareal.com.br/imovel/apartamento-4-quartos-boa-viagem-bairros-recife-com-garagem-150m2-venda-RS1000000-id-86511129/", "garage": "2", "latitude": "-8.141113", "rooms": "4", "bathrooms": "4", "condominium_fee": "R$ 1.150", "address": "Rua Professor Augusto Lins e Silva - Boa Viagem, Recife - PE", "area": "150"},
{"longitude": "-34.911564", "iptu": "103", "price": "330000", "title": "Casa de Condom\u00ednio na Rua El\u00e1dio Ramos, 475, Boa Viagem em Recife, por R$ 330.000 - VivaReal", "url": "https://www.vivareal.com.br/imovel/casa-de-condominio-4-quartos-boa-viagem-bairros-recife-com-garagem-100m2-venda-RS330000-id-79455570/", "garage": "1", "latitude": "-8.128657", "rooms": "4", "bathrooms": "1", "condominium_fee": "R$ 60", "address": "Rua El\u00e1dio Ramos, 475 - Boa Viagem, Recife - PE", "area": "100"},
{"latitude": "-8.121742", "rooms": "4", "bathrooms": "3", "longitude": "-34.896698", "condominium_fee": "R$ 1.500", "address": "Rua dos Navegantes, 1203 - Boa Viagem, Recife - PE", "title": "Apartamento na Rua dos Navegantes, 1203, Boa Viagem em Recife, por R$ 1.100.000 - VivaReal", "url": "https://www.vivareal.com.br/imovel/apartamento-4-quartos-boa-viagem-bairros-recife-com-garagem-234m2-venda-RS1100000-id-72946005/", "garage": "2", "area": "234", "price": "1100000"},
{"latitude": "-8.118702599999999", "title": "Lan\u00e7amento Moura Dubeux Beach Class Hotels e Residence - Boa Viagem, Recife - VivaReal", "longitude": "-34.89614289999997", "url": "https://www.vivareal.com.br/imoveis-lancamento/beach-class-hotels-e-residence-6659/"},
{"latitude": "-8.109473", "bathrooms": "1", "longitude": "-34.892405", "price": "135000", "address": "Rua Arist\u00eddes Muniz, 70 - Boa Viagem, Recife - PE", "title": "Sala Comercial na Rua Arist\u00eddes Muniz, 70, Boa Viagem em Recife, por R$ 135.000 - VivaReal", "url": "https://www.vivareal.com.br/imovel/sala-comercial-boa-viagem-bairros-recife-com-garagem-30m2-venda-RS135000-id-86968628/", "garage": "1", "area": "30"},
{"longitude": "-34.906033", "iptu": "1200", "price": "450000", "title": "Apartamento na Rua Desembargador Jo\u00e3o Paes, 796, Boa Viagem em Recife, por R$ 450.000 - VivaReal", "url": "https://www.vivareal.com.br/imovel/apartamento-3-quartos-boa-viagem-bairros-recife-com-garagem-120m2-venda-RS450000-id-87171641/", "garage": "2", "latitude": "-8.126127", "rooms": "3", "bathrooms": "3", "condominium_fee": "R$ 550", "address": "Rua Desembargador Jo\u00e3o Paes, 796 - Boa Viagem, Recife - PE", "area": "120"},
{"longitude": "-34.906956", "iptu": "3000", "price": "480000", "title": "Apartamento na Rua Doutor Luiz In\u00e1cio Pessoa de Melo, Boa Viagem em Recife, por R$ 480.000 - VivaReal", "url": "https://www.vivareal.com.br/imovel/apartamento-3-quartos-boa-viagem-bairros-recife-com-garagem-131m2-venda-RS480000-id-86511785/", "garage": "2", "latitude": "-8.139652", "rooms": "3", "bathrooms": "3", "condominium_fee": "R$ 950", "address": "Rua Doutor Luiz In\u00e1cio Pessoa de Melo - Boa Viagem, Recife - PE", "area": "131"},
{"latitude": "-8.104996", "rooms": "4", "bathrooms": "5", "longitude": "-34.88747", "price": "2200000", "address": "Avenida Boa Viagem, 1590 - Boa Viagem, Recife - PE", "title": "Apartamento na Avenida Boa Viagem, 1590, Boa Viagem em Recife, por R$ 2.200.000 - VivaReal", "url": "https://www.vivareal.com.br/imovel/apartamento-4-quartos-boa-viagem-bairros-recife-com-garagem-180m2-venda-RS2200000-id-83800614/", "garage": "3", "area": "180"},
{"latitude": "-8.136664", "rooms": "3", "longitude": "-34.901916", "price": "7500000", "address": "Avenida Boa Viagem, 5450 - Boa Viagem, Recife - PE", "title": "Apartamento na Avenida Boa Viagem, 5450, Boa Viagem em Recife, por R$ 7.500.000 - VivaReal", "url": "https://www.vivareal.com.br/imovel/apartamento-3-quartos-boa-viagem-bairros-recife-com-garagem-820m2-venda-RS7500000-id-88107334/", "garage": "5", "area": "820"},
{"latitude": "-8.11115", "rooms": "3", "bathrooms": "3", "longitude": "-34.892764", "condominium_fee": "R$ 635", "address": "Avenida Domingos Ferreira - Boa Viagem, Recife - PE", "title": "Apartamento na Avenida Domingos Ferreira, Boa Viagem em Recife, por R$ 589.000 - VivaReal", "url": "https://www.vivareal.com.br/imovel/apartamento-3-quartos-boa-viagem-bairros-recife-com-garagem-123m2-venda-RS589000-id-86140678/", "garage": "2", "area": "123", "price": "589000"},
{"latitude": "-8.122194", "rooms": "1", "bathrooms": "1", "longitude": "-34.896246", "condominium_fee": "R$ 300", "address": "Avenida Boa Viagem, 3738 - Boa Viagem, Recife - PE", "title": "Flat na Avenida Boa Viagem, 3738, Boa Viagem em Recife, por R$ 580.000 - VivaReal", "url": "https://www.vivareal.com.br/imovel/flat-1-quartos-boa-viagem-bairros-recife-com-garagem-43m2-venda-RS580000-id-76878064/", "garage": "1", "area": "43", "price": "580000"},
{"longitude": "-34.90056", "iptu": "7000", "price": "2890000", "title": "Apartamento na Avenida Boa Viagem, 5030, Boa Viagem em Recife, por R$ 2.890.000 - VivaReal", "url": "https://www.vivareal.com.br/imovel/apartamento-4-quartos-boa-viagem-bairros-recife-com-garagem-235m2-venda-RS2890000-id-84629790/", "garage": "4", "latitude": "-8.133156", "rooms": "4", "bathrooms": "5", "condominium_fee": "R$ 1.600", "address": "Avenida Boa Viagem, 5030 - Boa Viagem, Recife - PE", "area": "235"},
{"latitude": "-8.107477", "title": "Lan\u00e7amento Moura Dubeux Via Jardins - Apartamento - Boa Viagem, Recife - VivaReal", "longitude": "-34.892852", "url": "https://www.vivareal.com.br/imoveis-lancamento/via-jardins-6683/"},
{"latitude": "-8.119763", "rooms": "4", "bathrooms": "3", "longitude": "-34.895606", "price": "795000", "address": "Rua dos Navegantes - Boa Viagem, Recife - PE", "title": "Apartamento na Rua dos Navegantes, Boa Viagem em Recife, por R$ 795.000 - VivaReal", "url": "https://www.vivareal.com.br/imovel/apartamento-4-quartos-boa-viagem-bairros-recife-com-garagem-85m2-venda-RS795000-id-85516213/", "garage": "2", "area": "85"},
{"longitude": "-34.89946", "iptu": "8000", "price": "2499999", "title": "Cobertura na Rua dos Navegantes, 293, Boa Viagem em Recife, por R$ 2.499.999 - VivaReal", "url": "https://www.vivareal.com.br/imovel/cobertura-4-quartos-boa-viagem-bairros-recife-com-garagem-406m2-venda-RS2499999-id-81627346/", "garage": "3", "latitude": "-8.129364", "rooms": "4", "bathrooms": "6", "condominium_fee": "R$ 1.700", "address": "Rua dos Navegantes, 293 - Boa Viagem, Recife - PE", "area": "406"},
{"url": "https://www.vivareal.com.br/imovel/apartamento-2-quartos-boa-viagem-bairros-recife-com-garagem-58m2-venda-RS320000-id-84458124/", "rooms": "2", "bathrooms": "3", "condominium_fee": "R$ 269", "address": "Boa Viagem, Recife - PE", "title": "Apartamento 58 m\u00b2 em Boa Viagem em Recife, por R$ 320.000 - VivaReal", "price": "320000", "garage": "1", "area": "58"},
{"latitude": "-8.119749", "rooms": "3", "bathrooms": "2", "longitude": "-34.897569", "condominium_fee": "R$ 900", "address": "Rua dos Navegantes, 74 - Boa Viagem, Recife - PE", "title": "Apartamento na Rua dos Navegantes, 74, Boa Viagem em Recife, por R$ 650.000 - VivaReal", "url": "https://www.vivareal.com.br/imovel/apartamento-3-quartos-boa-viagem-bairros-recife-com-garagem-150m2-venda-RS650000-id-85548134/", "garage": "2", "area": "150", "price": "650000"},
{"latitude": "-8.122667", "rooms": "1", "bathrooms": "1", "longitude": "-34.906956", "condominium_fee": "R$ 167", "address": "Rua Coronel Aniz\u00edo Rodrigues Coelho, 660 - Boa Viagem, Recife - PE", "title": "Flat na Rua Coronel Aniz\u00edo Rodrigues Coelho, 660, Boa Viagem em Recife, por R$ 160.000 - VivaReal", "url": "https://www.vivareal.com.br/imovel/flat-1-quartos-boa-viagem-bairros-recife-com-garagem-25m2-venda-RS160000-id-84639517/", "garage": "1", "area": "25", "price": "160000"},
{"latitude": "-8.125878", "rooms": "3", "bathrooms": "2", "longitude": "-34.903465", "condominium_fee": "R$ 600", "address": "Rua Desembargador Jo\u00e3o Paes, 534 - Boa Viagem, Recife - PE", "title": "Apartamento na Rua Desembargador Jo\u00e3o Paes, 534, Boa Viagem em Recife, por R$ 280.000 - VivaReal", "url": "https://www.vivareal.com.br/imovel/apartamento-3-quartos-boa-viagem-bairros-recife-com-garagem-85m2-venda-RS280000-id-80787586/", "garage": "1", "area": "85", "price": "280000"},
{"latitude": "-8.115564", "title": "Lan\u00e7amento Moura Dubeux Beach Class Boa Viagem - Apartamento - Boa Viagem, Recife - VivaReal", "longitude": "-34.9001065", "url": "https://www.vivareal.com.br/imoveis-lancamento/beach-class-boa-viagem-6689/"},
{"longitude": "-34.899505", "iptu": "8000", "price": "2499999", "title": "Apartamento na Rua dos Navegantes, 293, Boa Viagem em Recife, por R$ 2.499.999 - VivaReal", "url": "https://www.vivareal.com.br/imovel/apartamento-4-quartos-boa-viagem-bairros-recife-com-garagem-406m2-venda-RS2499999-id-78373458/", "garage": "3", "latitude": "-8.129489", "rooms": "4", "bathrooms": "6", "condominium_fee": "R$ 1.700", "address": "Rua dos Navegantes, 293 - Boa Viagem, Recife - PE", "area": "406"},
{"latitude": "-8.118168", "rooms": "3", "bathrooms": "3", "longitude": "-34.899259", "condominium_fee": "R$ 700", "address": "Rua Padre Carapuceiro - Boa Viagem, Recife - PE", "title": "Apartamento na Rua Padre Carapuceiro, Boa Viagem em Recife, por R$ 500.000 - VivaReal", "url": "https://www.vivareal.com.br/imovel/apartamento-3-quartos-boa-viagem-bairros-recife-com-garagem-158m2-venda-RS500000-id-87195862/", "garage": "2", "area": "158", "price": "500000"},
{"longitude": "-34.887539", "iptu": "6000", "price": "2800000", "title": "Apartamento na Avenida Boa Viagem, 1662, Boa Viagem em Recife, por R$ 2.800.000 - VivaReal", "url": "https://www.vivareal.com.br/imovel/apartamento-4-quartos-boa-viagem-bairros-recife-com-garagem-218m2-venda-RS2800000-id-81192031/", "garage": "3", "latitude": "-8.105749", "rooms": "4", "bathrooms": "2", "condominium_fee": "R$ 1.500", "address": "Avenida Boa Viagem, 1662 - Boa Viagem, Recife - PE", "area": "218"},
{"latitude": "-8.140964", "rooms": "4", "bathrooms": "3", "longitude": "-34.906638", "price": "803000", "address": "Rua Mario Souto Maior - Boa Viagem, Recife - PE", "title": "Apartamento na Rua Mario Souto Maior, Boa Viagem em Recife, por R$ 803.000 - VivaReal", "url": "https://www.vivareal.com.br/imovel/apartamento-4-quartos-boa-viagem-bairros-recife-com-garagem-128m2-venda-RS803000-id-87263731/", "garage": "2", "area": "128"},
{"longitude": "-34.897945", "iptu": "3000", "price": "730000", "title": "Apartamento na Rua Francisco da Cunha, 1406, Boa Viagem em Recife, por R$ 730.000 - VivaReal", "url": "https://www.vivareal.com.br/imovel/apartamento-3-quartos-boa-viagem-bairros-recife-com-garagem-92m2-venda-RS730000-id-72302689/", "garage": "2", "latitude": "-8.117081", "rooms": "3", "bathrooms": "2", "condominium_fee": "R$ 700", "address": "Rua Francisco da Cunha, 1406 - Boa Viagem, Recife - PE", "area": "92"},
{"latitude": "-8.11046", "rooms": "3", "bathrooms": "2", "longitude": "-34.8963", "price": "500000", "address": "Rua Ant\u00f4nio de S\u00e1 Leit\u00e3o - Boa Viagem, Recife - PE", "title": "Apartamento na Rua Ant\u00f4nio de S\u00e1 Leit\u00e3o, Boa Viagem em Recife, por R$ 500.000 - VivaReal", "url": "https://www.vivareal.com.br/imovel/apartamento-3-quartos-boa-viagem-bairros-recife-com-garagem-86m2-venda-RS500000-id-76672578/", "garage": "2", "area": "86"},
{"longitude": "-34.898536", "iptu": "1500", "price": "647000", "title": "Apartamento na Rua Bruno Veloso, 284, Boa Viagem em Recife, por R$ 647.000 - VivaReal", "url": "https://www.vivareal.com.br/imovel/apartamento-3-quartos-boa-viagem-bairros-recife-com-garagem-91m2-venda-RS647000-id-84781690/", "garage": "2", "latitude": "-8.121509", "rooms": "3", "bathrooms": "3", "condominium_fee": "R$ 850", "address": "Rua Bruno Veloso, 284 - Boa Viagem, Recife - PE", "area": "91"},
{"longitude": "-34.898536", "iptu": "1500", "price": "640000", "title": "Apartamento na Rua Bruno Veloso, 284, Boa Viagem em Recife, por R$ 640.000 - VivaReal", "url": "https://www.vivareal.com.br/imovel/apartamento-3-quartos-boa-viagem-bairros-recife-com-garagem-91m2-venda-RS640000-id-84781700/", "garage": "2", "latitude": "-8.121509", "rooms": "3", "bathrooms": "3", "condominium_fee": "R$ 850", "address": "Rua Bruno Veloso, 284 - Boa Viagem, Recife - PE", "area": "91"},
{"longitude": "-34.897039", "iptu": "175", "price": "300000", "title": "Apartamento na Rua Ministro Nelsom Hungria, 159, Boa Viagem em Recife, por R$ 300.000 - VivaReal", "url": "https://www.vivareal.com.br/imovel/apartamento-3-quartos-boa-viagem-bairros-recife-com-garagem-90m2-venda-RS300000-id-85209058/", "garage": "1", "latitude": "-8.110229", "rooms": "3", "bathrooms": "3", "condominium_fee": "R$ 830", "address": "Rua Ministro Nelsom Hungria, 159 - Boa Viagem, Recife - PE", "area": "90"},
{"latitude": "-8.138357", "rooms": "4", "bathrooms": "2", "longitude": "-34.905771", "condominium_fee": "R$ 850", "address": "Rua C\u00f4nego Romeu, 161 - Boa Viagem, Recife - PE", "title": "Apartamento na Rua C\u00f4nego Romeu, 161, Boa Viagem em Recife, por R$ 695.000 - VivaReal", "url": "https://www.vivareal.com.br/imovel/apartamento-4-quartos-boa-viagem-bairros-recife-com-garagem-154m2-venda-RS695000-id-83694236/", "garage": "2", "area": "154", "price": "695000"},
{"longitude": "-34.907498", "iptu": "97", "price": "250000", "title": "Apartamento na Rua Jonatas de Vasconcelos, 750, Boa Viagem em Recife, por R$ 250.000 - VivaReal", "url": "https://www.vivareal.com.br/imovel/apartamento-3-quartos-boa-viagem-bairros-recife-com-garagem-75m2-venda-RS250000-id-87883070/", "garage": "1", "latitude": "-8.12757", "rooms": "3", "bathrooms": "1", "condominium_fee": "R$ 537", "address": "Rua Jonatas de Vasconcelos, 750 - Boa Viagem, Recife - PE", "area": "75"},
{"longitude": "-34.911215", "iptu": "620", "price": "229000", "title": "Apartamento na Rua Sideral, 238, Boa Viagem em Recife, por R$ 229.000 - VivaReal", "url": "https://www.vivareal.com.br/imovel/apartamento-3-quartos-boa-viagem-bairros-recife-com-garagem-86m2-venda-RS229000-id-80553650/", "garage": "1", "latitude": "-8.138468", "rooms": "3", "bathrooms": "3", "condominium_fee": "R$ 600", "address": "Rua Sideral, 238 - Boa Viagem, Recife - PE", "area": "86"},
{"latitude": "-8.112062", "rooms": "3", "bathrooms": "3", "longitude": "-34.90278", "price": "665000", "address": "Rua Ant\u00f4nio Falc\u00e3o, 979 - Boa Viagem, Recife - PE", "title": "Apartamento na Rua Ant\u00f4nio Falc\u00e3o, 979, Boa Viagem em Recife, por R$ 665.000 - VivaReal", "url": "https://www.vivareal.com.br/imovel/apartamento-3-quartos-boa-viagem-bairros-recife-com-garagem-81m2-venda-RS665000-id-85071616/", "garage": "2", "area": "81"},
{"longitude": "-34.893042", "iptu": "2380", "price": "750000", "title": "Apartamento na Rua Aviador Severiano Lins, 140, Boa Viagem em Recife, por R$ 750.000 - VivaReal", "url": "https://www.vivareal.com.br/imovel/apartamento-4-quartos-boa-viagem-bairros-recife-com-garagem-138m2-venda-RS750000-id-87371677/", "garage": "2", "latitude": "-8.107489", "rooms": "4", "bathrooms": "6", "condominium_fee": "R$ 600", "address": "Rua Aviador Severiano Lins, 140 - Boa Viagem, Recife - PE", "area": "138"},
{"latitude": "-8.136029", "rooms": "3", "bathrooms": "2", "longitude": "-34.901583", "condominium_fee": "R$ 580", "address": "Avenida Boa Viagem, 700 - Boa Viagem, Recife - PE", "title": "Apartamento na Avenida Boa Viagem, 700, Boa Viagem em Recife, por R$ 239.000 - VivaReal", "url": "https://www.vivareal.com.br/imovel/apartamento-3-quartos-boa-viagem-bairros-recife-com-garagem-88m2-venda-RS239000-id-86691155/", "garage": "1", "area": "88", "price": "239000"},
{"latitude": "-8.107489", "rooms": "4", "longitude": "-34.893042", "price": "730000", "address": "Rua Aviador Severiano Lins, 140 - Boa Viagem, Recife - PE", "title": "Apartamento na Rua Aviador Severiano Lins, 140, Boa Viagem em Recife, por R$ 730.000 - VivaReal", "url": "https://www.vivareal.com.br/imovel/apartamento-4-quartos-boa-viagem-bairros-recife-com-garagem-138m2-venda-RS730000-id-85697052/", "garage": "2", "area": "138"},
{"latitude": "-8.130779", "rooms": "2", "bathrooms": "2", "longitude": "-34.90997", "condominium_fee": "R$ 440", "address": "Rua Sans\u00e3o Ribeiro, 99 - Boa Viagem, Recife - PE", "title": "Apartamento na Rua Sans\u00e3o Ribeiro, 99, Boa Viagem em Recife, por R$ 300.000 - VivaReal", "url": "https://www.vivareal.com.br/imovel/apartamento-2-quartos-boa-viagem-bairros-recife-com-garagem-59m2-venda-RS300000-id-86170792/", "garage": "1", "area": "59", "price": "300000"},
{"longitude": "-34.905498", "iptu": "2640", "price": "390000", "title": "Apartamento na Rua L\u00e9on Helmer, 54, Boa Viagem em Recife, por R$ 390.000 - VivaReal", "url": "https://www.vivareal.com.br/imovel/apartamento-3-quartos-boa-viagem-bairros-recife-com-garagem-95m2-venda-RS390000-id-84005444/", "garage": "2", "latitude": "-8.136301", "rooms": "3", "bathrooms": "3", "condominium_fee": "R$ 810", "address": "Rua L\u00e9on Helmer, 54 - Boa Viagem, Recife - PE", "area": "95"},
{"latitude": "-8.089187", "rooms": "4", "bathrooms": "6", "longitude": "-34.886015", "price": "2600000", "address": "Avenida Encanta Mo\u00e7a, 100 - Boa Viagem, Recife - PE", "title": "Cobertura na Avenida Encanta Mo\u00e7a, 100, Boa Viagem em Recife, por R$ 2.600.000 - VivaReal", "url": "https://www.vivareal.com.br/imovel/cobertura-4-quartos-boa-viagem-bairros-recife-com-garagem-308m2-venda-RS2600000-id-84401816/", "garage": "3", "area": "308"},
{"latitude": "-8.108407", "rooms": "4", "bathrooms": "3", "longitude": "-34.888525", "price": "1600000", "address": "Avenida Boa Viagem, s/n - Boa Viagem, Recife - PE", "title": "Apartamento na Avenida Boa Viagem, s/n, Boa Viagem em Recife, por R$ 1.600.000 - VivaReal", "url": "https://www.vivareal.com.br/imovel/apartamento-4-quartos-boa-viagem-bairros-recife-com-garagem-420m2-venda-RS1600000-id-84636923/", "garage": "3", "area": "420"},
{"latitude": "-8.116789", "rooms": "4", "bathrooms": "5", "longitude": "-34.903654", "price": "1150000", "address": "Rua Padre Carapuceiro, 825 - Boa Viagem, Recife - PE", "title": "Apartamento na Rua Padre Carapuceiro, 825, Boa Viagem em Recife, por R$ 1.150.000 - VivaReal", "url": "https://www.vivareal.com.br/imovel/apartamento-4-quartos-boa-viagem-bairros-recife-com-garagem-132m2-venda-RS1150000-id-86096709/", "garage": "2", "area": "132"},
{"latitude": "-8.127206", "rooms": "3", "bathrooms": "2", "longitude": "-34.906903", "condominium_fee": "R$ 400", "address": "Rua Coronel Aniz\u00edo Rodrigues Coelho, 678 - Boa Viagem, Recife - PE", "title": "Apartamento na Rua Coronel Aniz\u00edo Rodrigues Coelho, 678, Boa Viagem em Recife, por R$ 450.000 - VivaReal", "url": "https://www.vivareal.com.br/imovel/apartamento-3-quartos-boa-viagem-bairros-recife-com-garagem-66m2-venda-RS450000-id-83694331/", "garage": "1", "area": "66", "price": "450000"},
{"longitude": "-34.883025", "iptu": "91", "price": "320000", "title": "Flat na Avenida Boa Viagem, 344, Boa Viagem em Recife, por R$ 320.000 - VivaReal", "url": "https://www.vivareal.com.br/imovel/flat-1-quartos-boa-viagem-bairros-recife-com-garagem-38m2-venda-RS320000-id-87162541/", "garage": "1", "latitude": "-8.094738", "rooms": "1", "bathrooms": "1", "condominium_fee": "R$ 802", "address": "Avenida Boa Viagem, 344 - Boa Viagem, Recife - PE", "area": "38"},
{"longitude": "-34.902704", "iptu": "1000", "price": "370000", "title": "Apartamento na Rua Dom Jos\u00e9 Lopes, 416, Boa Viagem em Recife, por R$ 370.000 - VivaReal", "url": "https://www.vivareal.com.br/imovel/apartamento-2-quartos-boa-viagem-bairros-recife-com-garagem-75m2-venda-RS370000-id-75782402/", "garage": "1", "latitude": "-8.126764", "rooms": "2", "bathrooms": "2", "condominium_fee": "R$ 600", "address": "Rua Dom Jos\u00e9 Lopes, 416 - Boa Viagem, Recife - PE", "area": "75"},
{"latitude": "-8.109744", "rooms": "2", "bathrooms": "1", "longitude": "-34.897566", "price": "200000", "address": "Rua Lu\u00eds de Farias Barbosa - Boa Viagem, Recife - PE", "title": "Apartamento na Rua Lu\u00eds de Farias Barbosa, Boa Viagem em Recife, por R$ 200.000 - VivaReal", "url": "https://www.vivareal.com.br/imovel/apartamento-2-quartos-boa-viagem-bairros-recife-com-garagem-46m2-venda-RS200000-id-86227400/", "garage": "1", "area": "46"},
{"url": "https://www.vivareal.com.br/imovel/apartamento-3-quartos-boa-viagem-bairros-recife-com-garagem-110m2-venda-RS650000-id-86499474/", "rooms": "3", "bathrooms": "3", "iptu": "2651", "condominium_fee": "R$ 750", "address": "Boa Viagem, Recife - PE", "title": "Apartamento 110 m\u00b2 em Boa Viagem em Recife, por R$ 650.000 - VivaReal", "price": "650000", "garage": "2", "area": "110"},
{"latitude": "-8.118659", "rooms": "3", "bathrooms": "1", "longitude": "-34.8991", "price": "900000", "address": "Rua Francisco da Cunha, 1640 - Boa Viagem, Recife - PE", "title": "Apartamento na Rua Francisco da Cunha, 1640, Boa Viagem em Recife, por R$ 900.000 - VivaReal", "url": "https://www.vivareal.com.br/imovel/apartamento-3-quartos-boa-viagem-bairros-recife-com-garagem-108m2-venda-RS900000-id-83635779/", "garage": "2", "area": "108"},
{"latitude": "-8.125456", "rooms": "3", "bathrooms": "2", "longitude": "-34.899428", "price": "304000", "address": "Avenida Conselheiro Aguiar, 4368 - Boa Viagem, Recife - PE", "title": "Apartamento na Avenida Conselheiro Aguiar, 4368, Boa Viagem em Recife, por R$ 304.000 - VivaReal", "url": "https://www.vivareal.com.br/imovel/apartamento-3-quartos-boa-viagem-bairros-recife-com-garagem-75m2-venda-RS304000-id-83737810/", "garage": "1", "area": "75"},
{"longitude": "-34.896341", "iptu": "1000", "price": "399000", "title": "Apartamento na Rua Ant\u00f4nio de S\u00e1 Leit\u00e3o, 139, Boa Viagem em Recife, por R$ 399.000 - VivaReal", "url": "https://www.vivareal.com.br/imovel/apartamento-2-quartos-boa-viagem-bairros-recife-com-garagem-49m2-venda-RS399000-id-79949272/", "garage": "1", "latitude": "-8.110469", "rooms": "2", "bathrooms": "2", "condominium_fee": "R$ 350", "address": "Rua Ant\u00f4nio de S\u00e1 Leit\u00e3o, 139 - Boa Viagem, Recife - PE", "area": "49"},
{"latitude": "-8.111611", "rooms": "1", "bathrooms": "1", "longitude": "-34.89593", "price": "230000", "address": "Rua Doutor Pedro de Melo Cah\u00fa, 201 - Boa Viagem, Recife - PE", "title": "Flat na Rua Doutor Pedro de Melo Cah\u00fa, 201, Boa Viagem em Recife, por R$ 230.000 - VivaReal", "url": "https://www.vivareal.com.br/imovel/flat-1-quartos-boa-viagem-bairros-recife-com-garagem-30m2-venda-RS230000-id-84069887/", "garage": "1", "area": "30"},
{"latitude": "-8.136128", "rooms": "4", "bathrooms": "4", "longitude": "-34.901718", "price": "2300000", "address": "Avenida Boa Viagem, 5366 - Boa Viagem, Recife - PE", "title": "Apartamento na Avenida Boa Viagem, 5366, Boa Viagem em Recife, por R$ 2.300.000 - VivaReal", "url": "https://www.vivareal.com.br/imovel/apartamento-4-quartos-boa-viagem-bairros-recife-com-garagem-210m2-venda-RS2300000-id-81542071/", "garage": "3", "area": "210"},
{"latitude": "-8.107581", "rooms": "4", "bathrooms": "5", "longitude": "-34.892892", "price": "760000", "address": "Rua Aviador Severiano Lins, 140 - Boa Viagem, Recife - PE", "title": "Apartamento na Rua Aviador Severiano Lins, 140, Boa Viagem em Recife, por R$ 760.000 - VivaReal", "url": "https://www.vivareal.com.br/imovel/apartamento-4-quartos-boa-viagem-bairros-recife-com-garagem-137m2-venda-RS760000-id-84503185/", "garage": "2", "area": "137"},
{"latitude": "-8.125013", "rooms": "2", "bathrooms": "2", "longitude": "-34.904338", "condominium_fee": "R$ 490", "address": "Rua Carlos Pereira Falc\u00e3o, 743 - Boa Viagem, Recife - PE", "title": "Apartamento na Rua Carlos Pereira Falc\u00e3o, 743, Boa Viagem em Recife, por R$ 350.000 - VivaReal", "url": "https://www.vivareal.com.br/imovel/apartamento-2-quartos-boa-viagem-bairros-recife-com-garagem-74m2-venda-RS350000-id-88008044/", "garage": "1", "area": "74", "price": "350000"},
{"longitude": "-34.893042", "iptu": "2500", "price": "910000", "title": "Apartamento na Rua Aviador Severiano Lins, 140, Boa Viagem em Recife, por R$ 910.000 - VivaReal", "url": "https://www.vivareal.com.br/imovel/apartamento-4-quartos-boa-viagem-bairros-recife-com-garagem-138m2-venda-RS910000-id-86170915/", "garage": "2", "latitude": "-8.107489", "rooms": "4", "bathrooms": "5", "condominium_fee": "R$ 750", "address": "Rua Aviador Severiano Lins, 140 - Boa Viagem, Recife - PE", "area": "138"},
{"longitude": "-34.893042", "iptu": "2500", "price": "893000", "title": "Apartamento na Rua Aviador Severiano Lins, 140, Boa Viagem em Recife, por R$ 893.000 - VivaReal", "url": "https://www.vivareal.com.br/imovel/apartamento-4-quartos-boa-viagem-bairros-recife-com-garagem-138m2-venda-RS893000-id-86170905/", "garage": "2", "latitude": "-8.107489", "rooms": "4", "bathrooms": "5", "condominium_fee": "R$ 750", "address": "Rua Aviador Severiano Lins, 140 - Boa Viagem, Recife - PE", "area": "138"},
{"latitude": "-8.139534", "rooms": "3", "bathrooms": "2", "longitude": "-34.909256", "condominium_fee": "R$ 720", "address": "Rua Almirante Batista Le\u00e3o, 53 - Boa Viagem, Recife - PE", "title": "Apartamento na Rua Almirante Batista Le\u00e3o, 53, Boa Viagem em Recife, por R$ 430.000 - VivaReal", "url": "https://www.vivareal.com.br/imovel/apartamento-3-quartos-boa-viagem-bairros-recife-com-garagem-98m2-venda-RS430000-id-83694112/", "garage": "2", "area": "98", "price": "430000"},
{"latitude": "-8.141999", "rooms": "3", "bathrooms": "2", "longitude": "-34.914552", "price": "150000", "address": "Rua Camboim, 994 - Boa Viagem, Recife - PE", "title": "Apartamento na Rua Camboim, 994, Boa Viagem em Recife, por R$ 150.000 - VivaReal", "url": "https://www.vivareal.com.br/imovel/apartamento-3-quartos-boa-viagem-bairros-recife-com-garagem-115m2-venda-RS150000-id-86743075/", "garage": "1", "area": "115"},
{"latitude": "-8.116567", "rooms": "4", "bathrooms": "4", "longitude": "-34.903155", "price": "1276000", "address": "Rua Padre Carapuceiro, 815 - Boa Viagem, Recife - PE", "title": "Apartamento na Rua Padre Carapuceiro, 815, Boa Viagem em Recife, por R$ 1.276.000 - VivaReal", "url": "https://www.vivareal.com.br/imovel/apartamento-4-quartos-boa-viagem-bairros-recife-com-garagem-129m2-venda-RS1276000-id-83826159/", "garage": "2", "area": "129"},
{"latitude": "-8.114898", "rooms": "3", "bathrooms": "3", "longitude": "-34.901219", "condominium_fee": "R$ 500", "address": "Rua Pedro Paes Mendon\u00e7a, 100 - Boa Viagem, Recife - PE", "title": "Apartamento na Rua Pedro Paes Mendon\u00e7a, 100, Boa Viagem em Recife, por R$ 680.000 - VivaReal", "url": "https://www.vivareal.com.br/imovel/apartamento-3-quartos-boa-viagem-bairros-recife-com-garagem-100m2-venda-RS680000-id-84754211/", "garage": "2", "area": "100", "price": "680000"},
{"latitude": "-8.117081", "rooms": "3", "bathrooms": "3", "longitude": "-34.897945", "condominium_fee": "R$ 750", "address": "Rua Francisco da Cunha, 1406 - Boa Viagem, Recife - PE", "title": "Apartamento na Rua Francisco da Cunha, 1406, Boa Viagem em Recife, por R$ 750.000 - VivaReal", "url": "https://www.vivareal.com.br/imovel/apartamento-3-quartos-boa-viagem-bairros-recife-com-garagem-96m2-venda-RS750000-id-84189354/", "garage": "2", "area": "96", "price": "750000"},
{"longitude": "-34.915389", "iptu": "50", "price": "200000", "title": "Apartamento na Avenida Vinte de Janeiro, 1080, Boa Viagem em Recife, por R$ 200.000 - VivaReal", "url": "https://www.vivareal.com.br/imovel/apartamento-2-quartos-boa-viagem-bairros-recife-com-garagem-70m2-venda-RS200000-id-82632893/", "garage": "1", "latitude": "-8.142521", "rooms": "2", "bathrooms": "1", "condominium_fee": "R$ 200", "address": "Avenida Vinte de Janeiro, 1080 - Boa Viagem, Recife - PE", "area": "70"},
{"latitude": "-8.130021", "rooms": "3", "bathrooms": "3", "longitude": "-34.900449", "condominium_fee": "R$ 800", "address": "Rua Petrolina, 105 - Boa Viagem, Recife - PE", "title": "Apartamento na Rua Petrolina, 105, Boa Viagem em Recife, por R$ 700.000 - VivaReal", "url": "https://www.vivareal.com.br/imovel/apartamento-3-quartos-boa-viagem-bairros-recife-com-garagem-170m2-venda-RS700000-id-85440442/", "garage": "2", "area": "170", "price": "700000"},
{"longitude": "-34.893042", "iptu": "2500", "price": "898000", "title": "Apartamento na Rua Aviador Severiano Lins, 140, Boa Viagem em Recife, por R$ 898.000 - VivaReal", "url": "https://www.vivareal.com.br/imovel/apartamento-4-quartos-boa-viagem-bairros-recife-com-garagem-138m2-venda-RS898000-id-85313532/", "garage": "2", "latitude": "-8.107489", "rooms": "4", "bathrooms": "4", "condominium_fee": "R$ 750", "address": "Rua Aviador Severiano Lins, 140 - Boa Viagem, Recife - PE", "area": "138"},
{"longitude": "-34.907073", "iptu": "1800", "price": "550000", "title": "Apartamento na Rua Coronel Aniz\u00edo Rodrigues Coelho, 618, Boa Viagem em Recife, por R$ 550.000 - VivaReal", "url": "https://www.vivareal.com.br/imovel/apartamento-3-quartos-boa-viagem-bairros-recife-com-garagem-95m2-venda-RS550000-id-87919165/", "garage": "2", "latitude": "-8.126643", "rooms": "3", "bathrooms": "2", "condominium_fee": "R$ 380", "address": "Rua Coronel Aniz\u00edo Rodrigues Coelho, 618 - Boa Viagem, Recife - PE", "area": "95"},
{"longitude": "-34.8989", "iptu": "1661", "price": "399000", "title": "Apartamento na Rua Professor J\u00falio Ferreira de Melo, 358, Boa Viagem em Recife, por R$ 399.000 - VivaReal", "url": "https://www.vivareal.com.br/imovel/apartamento-3-quartos-boa-viagem-bairros-recife-com-garagem-108m2-venda-RS399000-id-68353994/", "garage": "1", "latitude": "-8.11573", "rooms": "3", "bathrooms": "2", "condominium_fee": "R$ 850", "address": "Rua Professor J\u00falio Ferreira de Melo, 358 - Boa Viagem, Recife - PE", "area": "108"},
{"latitude": "-8.117759", "rooms": "1", "bathrooms": "1", "longitude": "-34.894344", "iptu": "800", "price": "298000", "address": "Rua dos Navegantes, 1706 - Boa Viagem, Recife - PE", "title": "Flat na Rua dos Navegantes, 1706, Boa Viagem em Recife, por R$ 298.000 - VivaReal", "url": "https://www.vivareal.com.br/imovel/flat-1-quartos-boa-viagem-bairros-recife-com-garagem-50m2-venda-RS298000-id-81627556/", "garage": "1", "area": "50"},
{"longitude": "-34.888435", "iptu": "10000", "price": "3150000", "title": "Apartamento na Avenida Boa Viagem, 1958, Boa Viagem em Recife, por R$ 3.150.000 - VivaReal", "url": "https://www.vivareal.com.br/imovel/apartamento-5-quartos-boa-viagem-bairros-recife-com-garagem-300m2-venda-RS3150000-id-81040376/", "garage": "4", "latitude": "-8.107877", "rooms": "5", "bathrooms": "5", "condominium_fee": "R$ 1.850", "address": "Avenida Boa Viagem, 1958 - Boa Viagem, Recife - PE", "area": "300"},
{"latitude": "-8.115954", "rooms": "3", "bathrooms": "1", "longitude": "-34.897245", "price": "650000", "address": "Rua Mamanguape - Boa Viagem, Recife - PE", "title": "Apartamento na Rua Mamanguape, Boa Viagem em Recife, por R$ 650.000 - VivaReal", "url": "https://www.vivareal.com.br/imovel/apartamento-3-quartos-boa-viagem-bairros-recife-com-garagem-110m2-venda-RS650000-id-87233683/", "garage": "2", "area": "110"},
{"longitude": "-34.893317", "iptu": "370", "price": "1160000", "title": "Apartamento na Rua Professor Jos\u00e9 Brand\u00e3o, 269, Boa Viagem em Recife, por R$ 1.160.000 - VivaReal", "url": "https://www.vivareal.com.br/imovel/apartamento-3-quartos-boa-viagem-bairros-recife-com-garagem-158m2-venda-RS1160000-id-85753185/", "garage": "3", "latitude": "-8.112649", "rooms": "3", "bathrooms": "4", "condominium_fee": "R$ 1.200", "address": "Rua Professor Jos\u00e9 Brand\u00e3o, 269 - Boa Viagem, Recife - PE", "area": "158"},
{"longitude": "-34.901464", "iptu": "2900", "price": "750000", "title": "Apartamento na Rua Pedro Paes de Mendon\u00e7a, 120, Boa Viagem em Recife, por R$ 750.000 - VivaReal", "url": "https://www.vivareal.com.br/imovel/apartamento-3-quartos-boa-viagem-bairros-recife-com-garagem-99m2-venda-RS750000-id-80404818/", "garage": "2", "latitude": "-8.114887", "rooms": "3", "bathrooms": "3", "condominium_fee": "R$ 650", "address": "Rua Pedro Paes de Mendon\u00e7a, 120 - Boa Viagem, Recife - PE", "area": "99"},
{"longitude": "-34.896921", "iptu": "1", "price": "847000", "title": "Apartamento na Rua Lu\u00eds de Farias Barbosa, 36, Boa Viagem em Recife, por R$ 847.000 - VivaReal", "url": "https://www.vivareal.com.br/imovel/apartamento-4-quartos-boa-viagem-bairros-recife-com-garagem-136m2-venda-RS847000-id-86978965/", "garage": "2", "latitude": "-8.109005", "rooms": "4", "bathrooms": "4", "condominium_fee": "R$ 1", "address": "Rua Lu\u00eds de Farias Barbosa, 36 - Boa Viagem, Recife - PE", "area": "136"},
{"longitude": "-34.896921", "iptu": "1", "price": "889000", "title": "Apartamento na Rua Lu\u00eds de Farias Barbosa, 36, Boa Viagem em Recife, por R$ 889.000 - VivaReal", "url": "https://www.vivareal.com.br/imovel/apartamento-4-quartos-boa-viagem-bairros-recife-com-garagem-136m2-venda-RS889000-id-86978944/", "garage": "2", "latitude": "-8.109005", "rooms": "4", "bathrooms": "4", "condominium_fee": "R$ 1", "address": "Rua Lu\u00eds de Farias Barbosa, 36 - Boa Viagem, Recife - PE", "area": "136"},
{"longitude": "-34.896921", "iptu": "1", "price": "844990", "title": "Apartamento na Rua Lu\u00eds de Farias Barbosa, 36, Boa Viagem em Recife, por R$ 844.990 - VivaReal", "url": "https://www.vivareal.com.br/imovel/apartamento-4-quartos-boa-viagem-bairros-recife-com-garagem-136m2-venda-RS844990-id-86978995/", "garage": "2", "latitude": "-8.109005", "rooms": "4", "bathrooms": "4", "condominium_fee": "R$ 1", "address": "Rua Lu\u00eds de Farias Barbosa, 36 - Boa Viagem, Recife - PE", "area": "136"},
{"longitude": "-34.895853", "iptu": "500", "price": "1000000", "title": "Apartamento na Rua Poeta Z\u00e9zito Neves, 00, Boa Viagem em Recife, por R$ 1.000.000 - VivaReal", "url": "https://www.vivareal.com.br/imovel/apartamento-4-quartos-boa-viagem-bairros-recife-com-garagem-170m2-venda-RS1000000-id-86547744/", "garage": "3", "latitude": "-8.112362", "rooms": "4", "bathrooms": "5", "condominium_fee": "R$ 1.400", "address": "Rua Poeta Z\u00e9zito Neves, 00 - Boa Viagem, Recife - PE", "area": "170"},
{"longitude": "-34.901267", "iptu": "1110", "price": "172000", "title": "Apartamento na Rua Bar\u00e3o de Souza Le\u00e3o, 123, Boa Viagem em Recife, por R$ 172.000 - VivaReal", "url": "https://www.vivareal.com.br/imovel/apartamento-1-quartos-boa-viagem-bairros-recife-com-garagem-50m2-venda-RS172000-id-86623970/", "garage": "1", "latitude": "-8.132149", "rooms": "1", "bathrooms": "1", "condominium_fee": "R$ 250", "address": "Rua Bar\u00e3o de Souza Le\u00e3o, 123 - Boa Viagem, Recife - PE", "area": "50"},
{"latitude": "-8.114485", "rooms": "4", "bathrooms": "4", "longitude": "-34.902257", "condominium_fee": "R$ 620", "address": "Rua Pedro Paes Mendon\u00e7a, 200 - Boa Viagem, Recife - PE", "title": "Apartamento na Rua Pedro Paes Mendon\u00e7a, 200, Boa Viagem em Recife, por R$ 950.000 - VivaReal", "url": "https://www.vivareal.com.br/imovel/apartamento-4-quartos-boa-viagem-bairros-recife-com-garagem-125m2-venda-RS950000-id-83799611/", "garage": "2", "area": "125", "price": "950000"},
{"url": "https://www.vivareal.com.br/imovel/apartamento-3-quartos-boa-viagem-bairros-recife-com-garagem-93m2-venda-RS450000-id-85522078/", "rooms": "3", "bathrooms": "1", "iptu": "1100", "condominium_fee": "R$ 570", "address": "Boa Viagem, Recife - PE", "title": "Apartamento 93 m\u00b2 em Boa Viagem em Recife, por R$ 450.000 - VivaReal", "price": "450000", "garage": "2", "area": "93"},
{"longitude": "-34.893042", "iptu": "1800", "price": "900000", "title": "Apartamento na Rua Aviador Severiano Lins, 140, Boa Viagem em Recife, por R$ 900.000 - VivaReal", "url": "https://www.vivareal.com.br/imovel/apartamento-4-quartos-boa-viagem-bairros-recife-com-garagem-138m2-venda-RS900000-id-84603525/", "garage": "2", "latitude": "-8.107489", "rooms": "4", "bathrooms": "2", "condominium_fee": "R$ 750", "address": "Rua Aviador Severiano Lins, 140 - Boa Viagem, Recife - PE", "area": "138"},
{"latitude": "-8.114823", "rooms": "4", "bathrooms": "4", "longitude": "-34.897323", "price": "1300000", "address": "Rua Ant\u00f4nio Falc\u00e3o, s - Boa Viagem, Recife - PE", "title": "Apartamento na Rua Ant\u00f4nio Falc\u00e3o, s, Boa Viagem em Recife, por R$ 1.300.000 - VivaReal", "url": "https://www.vivareal.com.br/imovel/apartamento-4-quartos-boa-viagem-bairros-recife-com-garagem-169m2-venda-RS1300000-id-83661306/", "garage": "3", "area": "169"},
{"latitude": "-8.11473", "rooms": "3", "bathrooms": "2", "longitude": "-34.8973", "price": "665000", "address": "Rua Ant\u00f4nio Falc\u00e3o - Boa Viagem, Recife - PE", "title": "Apartamento na Rua Ant\u00f4nio Falc\u00e3o, Boa Viagem em Recife, por R$ 665.000 - VivaReal", "url": "https://www.vivareal.com.br/imovel/apartamento-3-quartos-boa-viagem-bairros-recife-com-garagem-97m2-venda-RS665000-id-76679574/", "garage": "2", "area": "97"},
{"latitude": "-8.126215", "rooms": "2", "bathrooms": "1", "longitude": "-34.906214", "price": "340000", "address": "Rua Desembargador Jo\u00e3o Paes, 815 - Boa Viagem, Recife - PE", "title": "Apartamento na Rua Desembargador Jo\u00e3o Paes, 815, Boa Viagem em Recife, por R$ 340.000 - VivaReal", "url": "https://www.vivareal.com.br/imovel/apartamento-2-quartos-boa-viagem-bairros-recife-com-garagem-54m2-venda-RS340000-id-81729186/", "garage": "1", "area": "54"},
{"latitude": "-8.131528", "rooms": "3", "bathrooms": "6", "longitude": "-34.899677", "price": "7212000", "address": "Avenida Boa Viagem, 4820 - Boa Viagem, Recife - PE", "title": "Cobertura na Avenida Boa Viagem, 4820, Boa Viagem em Recife, por R$ 7.212.000 - VivaReal", "url": "https://www.vivareal.com.br/imovel/cobertura-3-quartos-boa-viagem-bairros-recife-com-garagem-430m2-venda-RS7212000-id-84363829/", "garage": "4", "area": "430"},
{"latitude": "-8.108414", "rooms": "4", "bathrooms": "6", "longitude": "-34.893405", "price": "820000", "address": "Rua Aviador Severiano Lins - Boa Viagem, Recife - PE", "title": "Apartamento na Rua Aviador Severiano Lins, Boa Viagem em Recife, por R$ 820.000 - VivaReal", "url": "https://www.vivareal.com.br/imovel/apartamento-4-quartos-boa-viagem-bairros-recife-com-garagem-137m2-venda-RS820000-id-86776619/", "garage": "2", "area": "137"},
{"latitude": "-8.118068", "rooms": "2", "bathrooms": "1", "longitude": "-34.902671", "price": "328000", "address": "Rua Ant\u00f4nio Lumack do Monte, 203 - Boa Viagem, Recife - PE", "title": "Flat na Rua Ant\u00f4nio Lumack do Monte, 203, Boa Viagem em Recife, por R$ 328.000 - VivaReal", "url": "https://www.vivareal.com.br/imovel/flat-2-quartos-boa-viagem-bairros-recife-com-garagem-60m2-venda-RS328000-id-78187723/", "garage": "1", "area": "60"},
{"latitude": "-8.114926", "rooms": "3", "bathrooms": "3", "longitude": "-34.896587", "condominium_fee": "R$ 650", "address": "Rua Francisco da Cunha - Boa Viagem, Recife - PE", "title": "Apartamento na Rua Francisco da Cunha, Boa Viagem em Recife, por R$ 630.000 - VivaReal", "url": "https://www.vivareal.com.br/imovel/apartamento-3-quartos-boa-viagem-bairros-recife-com-garagem-117m2-venda-RS630000-id-83019224/", "garage": "2", "area": "117", "price": "630000"},
{"latitude": "-8.105749", "rooms": "4", "bathrooms": "6", "longitude": "-34.887539", "price": "2600000", "address": "Avenida Boa Viagem, 1662 - Boa Viagem, Recife - PE", "title": "Apartamento na Avenida Boa Viagem, 1662, Boa Viagem em Recife, por R$ 2.600.000 - VivaReal", "url": "https://www.vivareal.com.br/imovel/apartamento-4-quartos-boa-viagem-bairros-recife-com-garagem-218m2-venda-RS2600000-id-83821232/", "garage": "3", "area": "218"},
{"longitude": "-34.893042", "iptu": "2000", "price": "902000", "title": "Apartamento na Rua Aviador Severiano Lins, 140, Boa Viagem em Recife, por R$ 902.000 - VivaReal", "url": "https://www.vivareal.com.br/imovel/apartamento-4-quartos-boa-viagem-bairros-recife-com-garagem-138m2-venda-RS902000-id-84125958/", "garage": "2", "latitude": "-8.107489", "rooms": "4", "bathrooms": "4", "condominium_fee": "R$ 700", "address": "Rua Aviador Severiano Lins, 140 - Boa Viagem, Recife - PE", "area": "138"},
{"longitude": "-34.893042", "iptu": "2000", "price": "905000", "title": "Apartamento na Rua Aviador Severiano Lins, 140, Boa Viagem em Recife, por R$ 905.000 - VivaReal", "url": "https://www.vivareal.com.br/imovel/apartamento-4-quartos-boa-viagem-bairros-recife-com-garagem-138m2-venda-RS905000-id-84125961/", "garage": "2", "latitude": "-8.107489", "rooms": "4", "bathrooms": "4", "condominium_fee": "R$ 700", "address": "Rua Aviador Severiano Lins, 140 - Boa Viagem, Recife - PE", "area": "138"},
{"longitude": "-34.893042", "iptu": "2000", "price": "910000", "title": "Apartamento na Rua Aviador Severiano Lins, 140, Boa Viagem em Recife, por R$ 910.000 - VivaReal", "url": "https://www.vivareal.com.br/imovel/apartamento-4-quartos-boa-viagem-bairros-recife-com-garagem-138m2-venda-RS910000-id-84125959/", "garage": "2", "latitude": "-8.107489", "rooms": "4", "bathrooms": "4", "condominium_fee": "R$ 700", "address": "Rua Aviador Severiano Lins, 140 - Boa Viagem, Recife - PE", "area": "138"},
{"longitude": "-34.901298", "iptu": "1800", "price": "635000", "title": "Apartamento na Rua Bruno Veloso, Boa Viagem em Recife, por R$ 635.000 - VivaReal", "url": "https://www.vivareal.com.br/imovel/apartamento-3-quartos-boa-viagem-bairros-recife-com-garagem-92m2-venda-RS635000-id-83686912/", "garage": "2", "latitude": "-8.121374", "rooms": "3", "bathrooms": "3", "condominium_fee": "R$ 900", "address": "Rua Bruno Veloso - Boa Viagem, Recife - PE", "area": "92"},
{"latitude": "-8.108764", "rooms": "3", "bathrooms": "3", "longitude": "-34.897665", "price": "580000", "address": "Rua Amaro Albino P\u00edmentel, 112 - Boa Viagem, Recife - PE", "title": "Apartamento na Rua Amaro Albino P\u00edmentel, 112, Boa Viagem em Recife, por R$ 580.000 - VivaReal", "url": "https://www.vivareal.com.br/imovel/apartamento-3-quartos-boa-viagem-bairros-recife-com-garagem-100m2-venda-RS580000-id-86969601/", "garage": "2", "area": "100"},
{"longitude": "-34.893042", "iptu": "2500", "price": "900250", "title": "Apartamento na Rua Aviador Severiano Lins, 140, Boa Viagem em Recife, por R$ 900.250 - VivaReal", "url": "https://www.vivareal.com.br/imovel/apartamento-4-quartos-boa-viagem-bairros-recife-com-garagem-138m2-venda-RS900250-id-85375499/", "garage": "2", "latitude": "-8.107489", "rooms": "4", "bathrooms": "4", "condominium_fee": "R$ 750", "address": "Rua Aviador Severiano Lins, 140 - Boa Viagem, Recife - PE", "area": "138"},
{"longitude": "-34.893289", "iptu": "1", "price": "560000", "title": "Apartamento na Rua Ant\u00f4nio Falc\u00e3o, 15, Boa Viagem em Recife, por R$ 560.000 - VivaReal", "url": "https://www.vivareal.com.br/imovel/apartamento-3-quartos-boa-viagem-bairros-recife-com-garagem-81m2-venda-RS560000-id-83977718/", "garage": "2", "latitude": "-8.116914", "rooms": "3", "bathrooms": "3", "condominium_fee": "R$ 1", "address": "Rua Ant\u00f4nio Falc\u00e3o, 15 - Boa Viagem, Recife - PE", "area": "81"},
{"longitude": "-34.901796", "iptu": "321", "price": "790000", "title": "Apartamento na Rua Set\u00fabal, 254, Boa Viagem em Recife, por R$ 790.000 - VivaReal", "url": "https://www.vivareal.com.br/imovel/apartamento-4-quartos-boa-viagem-bairros-recife-com-garagem-170m2-venda-RS790000-id-85488938/", "garage": "2", "latitude": "-8.133267", "rooms": "4", "bathrooms": "2", "condominium_fee": "R$ 850", "address": "Rua Set\u00fabal, 254 - Boa Viagem, Recife - PE", "area": "170"},
{"latitude": "-8.141781", "rooms": "3", "bathrooms": "3", "longitude": "-34.906851", "condominium_fee": "R$ 900", "address": "Rua Professor Augusto Lins e Silva, 626 - Boa Viagem, Recife - PE", "title": "Apartamento na Rua Professor Augusto Lins e Silva, 626, Boa Viagem em Recife, por R$ 420.000 - VivaReal", "url": "https://www.vivareal.com.br/imovel/apartamento-3-quartos-boa-viagem-bairros-recife-com-garagem-126m2-venda-RS420000-id-79487425/", "garage": "1", "area": "126", "price": "420000"},
{"longitude": "-34.893042", "iptu": "3000", "price": "890000", "title": "Apartamento na Rua Aviador Severiano Lins, 140, Boa Viagem em Recife, por R$ 890.000 - VivaReal", "url": "https://www.vivareal.com.br/imovel/apartamento-4-quartos-boa-viagem-bairros-recife-com-garagem-138m2-venda-RS890000-id-86515313/", "garage": "2", "latitude": "-8.107489", "rooms": "4", "bathrooms": "5", "condominium_fee": "R$ 900", "address": "Rua Aviador Severiano Lins, 140 - Boa Viagem, Recife - PE", "area": "138"},
{"longitude": "-34.893042", "iptu": "3000", "price": "899950", "title": "Apartamento na Rua Aviador Severiano Lins, 140, Boa Viagem em Recife, por R$ 899.950 - VivaReal", "url": "https://www.vivareal.com.br/imovel/apartamento-4-quartos-boa-viagem-bairros-recife-com-garagem-138m2-venda-RS899950-id-86515351/", "garage": "2", "latitude": "-8.107489", "rooms": "4", "bathrooms": "5", "condominium_fee": "R$ 900", "address": "Rua Aviador Severiano Lins, 140 - Boa Viagem, Recife - PE", "area": "138"},
{"longitude": "-34.893042", "iptu": "3000", "price": "903450", "title": "Apartamento na Rua Aviador Severiano Lins, 140, Boa Viagem em Recife, por R$ 903.450 - VivaReal", "url": "https://www.vivareal.com.br/imovel/apartamento-4-quartos-boa-viagem-bairros-recife-com-garagem-138m2-venda-RS903450-id-86515373/", "garage": "2", "latitude": "-8.107489", "rooms": "4", "bathrooms": "5", "condominium_fee": "R$ 900", "address": "Rua Aviador Severiano Lins, 140 - Boa Viagem, Recife - PE", "area": "138"},
{"longitude": "-34.897945", "iptu": "270", "price": "783000", "title": "Apartamento na Rua Francisco da Cunha, 1406, Boa Viagem em Recife, por R$ 783.000 - VivaReal", "url": "https://www.vivareal.com.br/imovel/apartamento-3-quartos-boa-viagem-bairros-recife-com-garagem-93m2-venda-RS783000-id-83383489/", "garage": "2", "latitude": "-8.117081", "rooms": "3", "bathrooms": "1", "condominium_fee": "R$ 750", "address": "Rua Francisco da Cunha, 1406 - Boa Viagem, Recife - PE", "area": "93"},
{"latitude": "-8.107767", "rooms": "3", "bathrooms": "4", "longitude": "-34.891733", "condominium_fee": "R$ 800", "address": "Rua Jos\u00e9 Aderval Chaves, 230 - Boa Viagem, Recife - PE", "title": "Apartamento na Rua Jos\u00e9 Aderval Chaves, 230, Boa Viagem em Recife, por R$ 1.030.000 - VivaReal", "url": "https://www.vivareal.com.br/imovel/apartamento-3-quartos-boa-viagem-bairros-recife-com-garagem-128m2-venda-RS1030000-id-86217819/", "garage": "2", "area": "128", "price": "1030000"},
{"longitude": "-34.888967", "iptu": "7000", "price": "4000000", "title": "Apartamento na Avenida Boa Viagem, 2108, Boa Viagem em Recife, por R$ 4.000.000 - VivaReal", "url": "https://www.vivareal.com.br/imovel/apartamento-4-quartos-boa-viagem-bairros-recife-com-garagem-255m2-venda-RS4000000-id-85892766/", "garage": "4", "latitude": "-8.10941", "rooms": "4", "bathrooms": "6", "condominium_fee": "R$ 2.100", "address": "Avenida Boa Viagem, 2108 - Boa Viagem, Recife - PE", "area": "255"},
{"latitude": "-8.114887", "rooms": "3", "bathrooms": "3", "longitude": "-34.901464", "condominium_fee": "R$ 550", "address": "Rua Pedro Paes Mendon\u00e7a, 120 - Boa Viagem, Recife - PE", "title": "Apartamento na Rua Pedro Paes Mendon\u00e7a, 120, Boa Viagem em Recife, por R$ 685.000 - VivaReal", "url": "https://www.vivareal.com.br/imovel/apartamento-3-quartos-boa-viagem-bairros-recife-com-garagem-101m2-venda-RS685000-id-85681727/", "garage": "2", "area": "101", "price": "685000"},
{"longitude": "-34.893042", "iptu": "1800", "price": "905000", "title": "Apartamento na Rua Aviador Severiano Lins, 140, Boa Viagem em Recife, por R$ 905.000 - VivaReal", "url": "https://www.vivareal.com.br/imovel/apartamento-4-quartos-boa-viagem-bairros-recife-com-garagem-150m2-venda-RS905000-id-84505723/", "garage": "3", "latitude": "-8.107489", "rooms": "4", "bathrooms": "5", "condominium_fee": "R$ 850", "address": "Rua Aviador Severiano Lins, 140 - Boa Viagem, Recife - PE", "area": "150"},
{"longitude": "-34.902878", "iptu": "2500", "price": "870000", "title": "Apartamento na Rua Visconde de Jequitinhonha, 23, Boa Viagem em Recife, por R$ 870.000 - VivaReal", "url": "https://www.vivareal.com.br/imovel/apartamento-4-quartos-boa-viagem-bairros-recife-com-garagem-130m2-venda-RS870000-id-86452555/", "garage": "2", "latitude": "-8.1324", "rooms": "4", "bathrooms": "3", "condominium_fee": "R$ 1.200", "address": "Rua Visconde de Jequitinhonha, 23 - Boa Viagem, Recife - PE", "area": "130"},
{"longitude": "-34.902877", "iptu": "2500", "price": "898000", "title": "Apartamento na Rua Visconde de Jequitinhonha, 20, Boa Viagem em Recife, por R$ 898.000 - VivaReal", "url": "https://www.vivareal.com.br/imovel/apartamento-4-quartos-boa-viagem-bairros-recife-com-garagem-130m2-venda-RS898000-id-86452558/", "garage": "2", "latitude": "-8.132436", "rooms": "4", "bathrooms": "3", "condominium_fee": "R$ 1.200", "address": "Rua Visconde de Jequitinhonha, 20 - Boa Viagem, Recife - PE", "area": "130"},
{"longitude": "-34.902876", "iptu": "2500", "price": "930000", "title": "Apartamento na Rua Visconde de Jequitinhonha, 17, Boa Viagem em Recife, por R$ 930.000 - VivaReal", "url": "https://www.vivareal.com.br/imovel/apartamento-4-quartos-boa-viagem-bairros-recife-com-garagem-130m2-venda-RS930000-id-86452568/", "garage": "2", "latitude": "-8.132454", "rooms": "4", "bathrooms": "3", "condominium_fee": "R$ 1.200", "address": "Rua Visconde de Jequitinhonha, 17 - Boa Viagem, Recife - PE", "area": "130"},
{"longitude": "-34.899694", "iptu": "1", "price": "2300000", "title": "Apartamento na Avenida Boa Viagem, 4820, Boa Viagem em Recife, por R$ 2.300.000 - VivaReal", "url": "https://www.vivareal.com.br/imovel/apartamento-4-quartos-boa-viagem-bairros-recife-com-garagem-217m2-venda-RS2300000-id-84605339/", "garage": "3", "latitude": "-8.13152", "rooms": "4", "bathrooms": "6", "condominium_fee": "R$ 1.518", "address": "Avenida Boa Viagem, 4820 - Boa Viagem, Recife - PE", "area": "217"},
{"longitude": "-34.893042", "iptu": "2000", "price": "890000", "title": "Apartamento na Rua Aviador Severiano Lins, 140, Boa Viagem em Recife, por R$ 890.000 - VivaReal", "url": "https://www.vivareal.com.br/imovel/apartamento-4-quartos-boa-viagem-bairros-recife-com-garagem-138m2-venda-RS890000-id-85250823/", "garage": "2", "latitude": "-8.107489", "rooms": "4", "bathrooms": "4", "condominium_fee": "R$ 750", "address": "Rua Aviador Severiano Lins, 140 - Boa Viagem, Recife - PE", "area": "138"},
{"longitude": "-34.893042", "iptu": "2000", "price": "895000", "title": "Apartamento na Rua Aviador Severiano Lins, 140, Boa Viagem em Recife, por R$ 895.000 - VivaReal", "url": "https://www.vivareal.com.br/imovel/apartamento-4-quartos-boa-viagem-bairros-recife-com-garagem-138m2-venda-RS895000-id-85250851/", "garage": "2", "latitude": "-8.107489", "rooms": "4", "bathrooms": "4", "condominium_fee": "R$ 750", "address": "Rua Aviador Severiano Lins, 140 - Boa Viagem, Recife - PE", "area": "138"},
{"longitude": "-34.893042", "iptu": "2000", "price": "900200", "title": "Apartamento na Rua Aviador Severiano Lins, 140, Boa Viagem em Recife, por R$ 900.200 - VivaReal", "url": "https://www.vivareal.com.br/imovel/apartamento-4-quartos-boa-viagem-bairros-recife-com-garagem-138m2-venda-RS900200-id-85250921/", "garage": "2", "latitude": "-8.107489", "rooms": "4", "bathrooms": "4", "condominium_fee": "R$ 750", "address": "Rua Aviador Severiano Lins, 140 - Boa Viagem, Recife - PE", "area": "138"},
{"longitude": "-34.893042", "iptu": "2000", "price": "915000", "title": "Apartamento na Rua Aviador Severiano Lins, 140, Boa Viagem em Recife, por R$ 915.000 - VivaReal", "url": "https://www.vivareal.com.br/imovel/apartamento-4-quartos-boa-viagem-bairros-recife-com-garagem-138m2-venda-RS915000-id-85250943/", "garage": "2", "latitude": "-8.107489", "rooms": "4", "bathrooms": "4", "condominium_fee": "R$ 750", "address": "Rua Aviador Severiano Lins, 140 - Boa Viagem, Recife - PE", "area": "138"},
{"latitude": "-8.140183", "rooms": "2", "bathrooms": "3", "longitude": "-34.90345", "iptu": "1300", "condominium_fee": "R$ 550", "url": "https://www.vivareal.com.br/imovel/apartamento-2-quartos-boa-viagem-bairros-recife-115m2-venda-RS500000-id-83833511/", "address": "Avenida Boa Viagem, 5868 - Boa Viagem, Recife - PE", "title": "Apartamento na Avenida Boa Viagem, 5868, Boa Viagem em Recife, por R$ 500.000 - VivaReal", "price": "500000", "area": "115"},
{"longitude": "-34.904952", "iptu": "1", "price": "2599999", "title": "Apartamento na Avenida Boa Viagem, 6396, Boa Viagem em Recife, por R$ 2.599.999 - VivaReal", "url": "https://www.vivareal.com.br/imovel/apartamento-4-quartos-boa-viagem-bairros-recife-com-garagem-308m2-venda-RS2599999-id-85982378/", "garage": "3", "latitude": "-8.144465", "rooms": "4", "bathrooms": "6", "condominium_fee": "R$ 1", "address": "Avenida Boa Viagem, 6396 - Boa Viagem, Recife - PE", "area": "308"},
{"longitude": "-34.899239", "iptu": "350", "price": "630000", "title": "Apartamento na Avenida Engenheiro Domingos Ferreira, 3838, Boa Viagem em Recife, por R$ 630.000 - VivaReal", "url": "https://www.vivareal.com.br/imovel/apartamento-3-quartos-boa-viagem-bairros-recife-com-garagem-150m2-venda-RS630000-id-83651051/", "garage": "2", "latitude": "-8.121963", "rooms": "3", "bathrooms": "1", "condominium_fee": "R$ 800", "address": "Avenida Engenheiro Domingos Ferreira, 3838 - Boa Viagem, Recife - PE", "area": "150"},
{"latitude": "-8.131012", "rooms": "2", "bathrooms": "2", "longitude": "-34.905595", "price": "360000", "address": "Rua Jo\u00e3o Dias Martins, 88 - Boa Viagem, Recife - PE", "title": "Apartamento na Rua Jo\u00e3o Dias Martins, 88, Boa Viagem em Recife, por R$ 360.000 - VivaReal", "url": "https://www.vivareal.com.br/imovel/apartamento-2-quartos-boa-viagem-bairros-recife-com-garagem-63m2-venda-RS360000-id-85522090/", "garage": "1", "area": "63"},
{"longitude": "-34.8991", "iptu": "190", "price": "730000", "title": "Apartamento na Rua Francisco da Cunha, 1640, Boa Viagem em Recife, por R$ 730.000 - VivaReal", "url": "https://www.vivareal.com.br/imovel/apartamento-3-quartos-boa-viagem-bairros-recife-com-garagem-108m2-venda-RS730000-id-75440678/", "garage": "2", "latitude": "-8.118659", "rooms": "3", "bathrooms": "1", "condominium_fee": "R$ 530", "address": "Rua Francisco da Cunha, 1640 - Boa Viagem, Recife - PE", "area": "108"},
{"latitude": "-8.12199", "rooms": "2", "bathrooms": "2", "longitude": "-34.907413", "condominium_fee": "R$ 644", "address": "Rua Jorge Couceiro da Costa Eiras, 650 - Boa Viagem, Recife - PE", "title": "Apartamento na Rua Jorge Couceiro da Costa Eiras, 650, Boa Viagem em Recife, por R$ 215.000 - VivaReal", "url": "https://www.vivareal.com.br/imovel/apartamento-2-quartos-boa-viagem-bairros-recife-com-garagem-68m2-venda-RS215000-id-86030175/", "garage": "1", "area": "68", "price": "215000"},
{"latitude": "-8.142733", "rooms": "3", "bathrooms": "4", "longitude": "-34.907724", "price": "752100", "address": "Rua Jo\u00e3o Cardoso A\u00edres, 327 - Boa Viagem, Recife - PE", "title": "Apartamento na Rua Jo\u00e3o Cardoso A\u00edres, 327, Boa Viagem em Recife, por R$ 752.100 - VivaReal", "url": "https://www.vivareal.com.br/imovel/apartamento-3-quartos-boa-viagem-bairros-recife-com-garagem-124m2-venda-RS752100-id-86969809/", "garage": "3", "area": "124"},
{"longitude": "-34.906362", "iptu": "1820", "price": "420000", "title": "Apartamento na Rua Professor Augusto Lins e Silva, 454, Boa Viagem em Recife, por R$ 420.000 - VivaReal", "url": "https://www.vivareal.com.br/imovel/apartamento-4-quartos-boa-viagem-bairros-recife-com-garagem-103m2-venda-RS420000-id-85610587/", "garage": "1", "latitude": "-8.141234", "rooms": "4", "bathrooms": "3", "condominium_fee": "R$ 680", "address": "Rua Professor Augusto Lins e Silva, 454 - Boa Viagem, Recife - PE", "area": "103"},
{"longitude": "-34.884649", "iptu": "2500", "price": "2700000", "title": "Apartamento na Avenida Boa Viagem, 980, Boa Viagem em Recife, por R$ 2.700.000 - VivaReal", "url": "https://www.vivareal.com.br/imovel/apartamento-3-quartos-boa-viagem-bairros-recife-com-garagem-175m2-venda-RS2700000-id-84996189/", "garage": "3", "latitude": "-8.100223", "rooms": "3", "bathrooms": "5", "condominium_fee": "R$ 2.400", "address": "Avenida Boa Viagem, 980 - Boa Viagem, Recife - PE", "area": "175"},
{"latitude": "-8.125348", "rooms": "3", "bathrooms": "2", "longitude": "-34.908296", "price": "290000", "address": "Rua Am\u00e1lia Bernardino de Souza - Boa Viagem, Recife - PE", "title": "Apartamento na Rua Am\u00e1lia Bernardino de Souza, Boa Viagem em Recife, por R$ 290.000 - VivaReal", "url": "https://www.vivareal.com.br/imovel/apartamento-3-quartos-boa-viagem-bairros-recife-com-garagem-61m2-venda-RS290000-id-85668780/", "garage": "1", "area": "61"},
{"latitude": "-8.128088", "rooms": "5", "bathrooms": "2", "longitude": "-34.906205", "price": "700000", "address": "Rua Raimundo Gomes Gondin, 75 - Boa Viagem, Recife - PE", "title": "Casa na Rua Raimundo Gomes Gondin, 75, Boa Viagem em Recife, por R$ 700.000 - VivaReal", "url": "https://www.vivareal.com.br/imovel/casa-5-quartos-boa-viagem-bairros-recife-com-garagem-16m2-venda-RS700000-id-77930776/", "garage": "3", "area": "16"},
{"longitude": "-34.893042", "iptu": "1", "price": "915000", "title": "Apartamento na Rua Aviador Severiano Lins, 140, Boa Viagem em Recife, por R$ 915.000 - VivaReal", "url": "https://www.vivareal.com.br/imovel/apartamento-4-quartos-boa-viagem-bairros-recife-com-garagem-150m2-venda-RS915000-id-84094296/", "garage": "3", "latitude": "-8.107489", "rooms": "4", "bathrooms": "5", "condominium_fee": "R$ 650", "address": "Rua Aviador Severiano Lins, 140 - Boa Viagem, Recife - PE", "area": "150"},
{"longitude": "-34.893042", "iptu": "1", "price": "999000", "title": "Apartamento na Rua Aviador Severiano Lins, 140, Boa Viagem em Recife, por R$ 999.000 - VivaReal", "url": "https://www.vivareal.com.br/imovel/apartamento-4-quartos-boa-viagem-bairros-recife-com-garagem-150m2-venda-RS999000-id-84094688/", "garage": "3", "latitude": "-8.107489", "rooms": "4", "bathrooms": "5", "condominium_fee": "R$ 650", "address": "Rua Aviador Severiano Lins, 140 - Boa Viagem, Recife - PE", "area": "150"},
{"longitude": "-34.893042", "iptu": "1", "price": "900000", "title": "Apartamento na Rua Aviador Severiano Lins, 140, Boa Viagem em Recife, por R$ 900.000 - VivaReal", "url": "https://www.vivareal.com.br/imovel/apartamento-4-quartos-boa-viagem-bairros-recife-com-garagem-140m2-venda-RS900000-id-84986039/", "garage": "2", "latitude": "-8.107489", "rooms": "4", "bathrooms": "5", "condominium_fee": "R$ 1", "address": "Rua Aviador Severiano Lins, 140 - Boa Viagem, Recife - PE", "area": "140"},
{"latitude": "-8.108419", "rooms": "3", "bathrooms": "3", "longitude": "-34.897301", "condominium_fee": "R$ 600", "address": "Rua Amaro Albino P\u00edmentel, 33 - Boa Viagem, Recife - PE", "title": "Apartamento na Rua Amaro Albino P\u00edmentel, 33, Boa Viagem em Recife, por R$ 610.000 - VivaReal", "url": "https://www.vivareal.com.br/imovel/apartamento-3-quartos-boa-viagem-bairros-recife-com-garagem-105m2-venda-RS610000-id-85681949/", "garage": "2", "area": "105", "price": "610000"},
{"longitude": "-34.884649", "iptu": "2500", "price": "2650000", "title": "Apartamento na Avenida Boa Viagem, 980, Boa Viagem em Recife, por R$ 2.650.000 - VivaReal", "url": "https://www.vivareal.com.br/imovel/apartamento-3-quartos-boa-viagem-bairros-recife-com-garagem-175m2-venda-RS2650000-id-84996193/", "garage": "3", "latitude": "-8.100223", "rooms": "3", "bathrooms": "5", "condominium_fee": "R$ 2.400", "address": "Avenida Boa Viagem, 980 - Boa Viagem, Recife - PE", "area": "175"},
{"latitude": "-8.142733", "rooms": "3", "bathrooms": "4", "longitude": "-34.907724", "price": "751000", "address": "Rua Jo\u00e3o Cardoso A\u00edres, 327 - Boa Viagem, Recife - PE", "title": "Apartamento na Rua Jo\u00e3o Cardoso A\u00edres, 327, Boa Viagem em Recife, por R$ 751.000 - VivaReal", "url": "https://www.vivareal.com.br/imovel/apartamento-3-quartos-boa-viagem-bairros-recife-com-garagem-124m2-venda-RS751000-id-86732408/", "garage": "3", "area": "124"},
{"latitude": "-8.142733", "rooms": "3", "bathrooms": "4", "longitude": "-34.907724", "price": "750000", "address": "Rua Jo\u00e3o Cardoso A\u00edres, 327 - Boa Viagem, Recife - PE", "title": "Apartamento na Rua Jo\u00e3o Cardoso A\u00edres, 327, Boa Viagem em Recife, por R$ 750.000 - VivaReal", "url": "https://www.vivareal.com.br/imovel/apartamento-3-quartos-boa-viagem-bairros-recife-com-garagem-124m2-venda-RS750000-id-86498572/", "garage": "3", "area": "124"},
{"longitude": "-34.898704", "iptu": "3000", "price": "1090000", "title": "Apartamento na Rua F\u00e9lix de Brito e Melo, 250, Boa Viagem em Recife, por R$ 1.090.000 - VivaReal", "url": "https://www.vivareal.com.br/imovel/apartamento-4-quartos-boa-viagem-bairros-recife-com-garagem-150m2-venda-RS1090000-id-85252054/", "garage": "2", "latitude": "-8.116291", "rooms": "4", "bathrooms": "4", "condominium_fee": "R$ 610", "address": "Rua F\u00e9lix de Brito e Melo, 250 - Boa Viagem, Recife - PE", "area": "150"},
{"longitude": "-34.902417", "iptu": "1", "price": "1160000", "title": "Apartamento na Avenida Boa Viagem, 100, Boa Viagem em Recife, por R$ 1.160.000 - VivaReal", "url": "https://www.vivareal.com.br/imovel/apartamento-4-quartos-boa-viagem-bairros-recife-com-garagem-137m2-venda-RS1160000-id-83696427/", "garage": "2", "latitude": "-8.13935", "rooms": "4", "bathrooms": "3", "condominium_fee": "R$ 1", "address": "Avenida Boa Viagem, 100 - Boa Viagem, Recife - PE", "area": "137"},
{"longitude": "-34.892489", "iptu": "2000", "price": "945000", "title": "Apartamento na Rua Aviador Severiano Lins, 60, Boa Viagem em Recife, por R$ 945.000 - VivaReal", "url": "https://www.vivareal.com.br/imovel/apartamento-4-quartos-boa-viagem-bairros-recife-com-garagem-137m2-venda-RS945000-id-83684189/", "garage": "2", "latitude": "-8.106733", "rooms": "4", "bathrooms": "4", "condominium_fee": "R$ 900", "address": "Rua Aviador Severiano Lins, 60 - Boa Viagem, Recife - PE", "area": "137"},
{"longitude": "-34.908396", "iptu": "1", "price": "385000", "title": "Apartamento na Rua Cruzeiro do Forte, 14, Boa Viagem em Recife, por R$ 385.000 - VivaReal", "url": "https://www.vivareal.com.br/imovel/apartamento-3-quartos-boa-viagem-bairros-recife-com-garagem-68m2-venda-RS385000-id-85483635/", "garage": "1", "latitude": "-8.139499", "rooms": "3", "bathrooms": "3", "condominium_fee": "R$ 1", "address": "Rua Cruzeiro do Forte, 14 - Boa Viagem, Recife - PE", "area": "68"},
{"longitude": "-34.907224", "iptu": "1700", "price": "580000", "title": "Apartamento na Rua C\u00f4nego Romeu, 314, Boa Viagem em Recife, por R$ 580.000 - VivaReal", "url": "https://www.vivareal.com.br/imovel/apartamento-3-quartos-boa-viagem-bairros-recife-com-garagem-96m2-venda-RS580000-id-85056693/", "garage": "2", "latitude": "-8.137956", "rooms": "3", "bathrooms": "2", "condominium_fee": "R$ 900", "address": "Rua C\u00f4nego Romeu, 314 - Boa Viagem, Recife - PE", "area": "96"},
{"latitude": "-8.140649", "rooms": "3", "bathrooms": "3", "longitude": "-34.9097", "price": "605000", "address": "Rua General Salgado, 476 - Boa Viagem, Recife - PE", "title": "Apartamento na Rua General Salgado, 476, Boa Viagem em Recife, por R$ 605.000 - VivaReal", "url": "https://www.vivareal.com.br/imovel/apartamento-3-quartos-boa-viagem-bairros-recife-com-garagem-92m2-venda-RS605000-id-85666258/", "garage": "2", "area": "92"},
{"latitude": "-8.140649", "rooms": "3", "bathrooms": "3", "longitude": "-34.9097", "price": "608000", "address": "Rua General Salgado, 476 - Boa Viagem, Recife - PE", "title": "Apartamento na Rua General Salgado, 476, Boa Viagem em Recife, por R$ 608.000 - VivaReal", "url": "https://www.vivareal.com.br/imovel/apartamento-3-quartos-boa-viagem-bairros-recife-com-garagem-92m2-venda-RS608000-id-85666260/", "garage": "2", "area": "92"},
{"latitude": "-8.119763", "rooms": "4", "bathrooms": "2", "longitude": "-34.895606", "condominium_fee": "R$ 650", "address": "Rua dos Navegantes - Boa Viagem, Recife - PE", "title": "Apartamento na Rua dos Navegantes, Boa Viagem em Recife, por R$ 850.000 - VivaReal", "url": "https://www.vivareal.com.br/imovel/apartamento-4-quartos-boa-viagem-bairros-recife-com-garagem-180m2-venda-RS850000-id-82490731/", "garage": "2", "area": "180", "price": "850000"},
{"longitude": "-34.893042", "iptu": "2500", "price": "900100", "title": "Apartamento na Rua Aviador Severiano Lins, 140, Boa Viagem em Recife, por R$ 900.100 - VivaReal", "url": "https://www.vivareal.com.br/imovel/apartamento-4-quartos-boa-viagem-bairros-recife-com-garagem-138m2-venda-RS900100-id-86354294/", "garage": "2", "latitude": "-8.107489", "rooms": "4", "bathrooms": "4", "condominium_fee": "R$ 800", "address": "Rua Aviador Severiano Lins, 140 - Boa Viagem, Recife - PE", "area": "138"},
{"longitude": "-34.893042", "iptu": "2500", "price": "903000", "title": "Apartamento na Rua Aviador Severiano Lins, 140, Boa Viagem em Recife, por R$ 903.000 - VivaReal", "url": "https://www.vivareal.com.br/imovel/apartamento-4-quartos-boa-viagem-bairros-recife-com-garagem-138m2-venda-RS903000-id-86354456/", "garage": "2", "latitude": "-8.107489", "rooms": "4", "bathrooms": "4", "condominium_fee": "R$ 800", "address": "Rua Aviador Severiano Lins, 140 - Boa Viagem, Recife - PE", "area": "138"},
{"longitude": "-34.908123", "iptu": "89", "price": "250000", "title": "Apartamento na Rua Am\u00e1lia Bernardino de Souza, 670, Boa Viagem em Recife, por R$ 250.000 - VivaReal", "url": "https://www.vivareal.com.br/imovel/apartamento-2-quartos-boa-viagem-bairros-recife-com-garagem-55m2-venda-RS250000-id-86241805/", "garage": "1", "latitude": "-8.127347", "rooms": "2", "bathrooms": "1", "condominium_fee": "R$ 420", "address": "Rua Am\u00e1lia Bernardino de Souza, 670 - Boa Viagem, Recife - PE", "area": "55"},
{"latitude": "-8.126734", "rooms": "1", "bathrooms": "1", "longitude": "-34.9071", "price": "199000", "address": "Rua Coronel Aniz\u00edo Rodrigues Coelho, 660 - Boa Viagem, Recife - PE", "title": "Flat na Rua Coronel Aniz\u00edo Rodrigues Coelho, 660, Boa Viagem em Recife, por R$ 199.000 - VivaReal", "url": "https://www.vivareal.com.br/imovel/flat-1-quartos-boa-viagem-bairros-recife-com-garagem-25m2-venda-RS199000-id-82579773/", "garage": "1", "area": "25"},
{"latitude": "-8.114786", "rooms": "3", "bathrooms": "3", "longitude": "-34.901662", "price": "698400", "address": "Rua Pedro Paes Mendon\u00e7a, 140 - Boa Viagem, Recife - PE", "title": "Apartamento na Rua Pedro Paes Mendon\u00e7a, 140, Boa Viagem em Recife, por R$ 698.400 - VivaReal", "url": "https://www.vivareal.com.br/imovel/apartamento-3-quartos-boa-viagem-bairros-recife-com-garagem-97m2-venda-RS698400-id-87214560/", "garage": "2", "area": "97"},
{"longitude": "-34.893042", "iptu": "1800", "price": "900000", "title": "Apartamento na Rua Aviador Severiano Lins, 140, Boa Viagem em Recife, por R$ 900.000 - VivaReal", "url": "https://www.vivareal.com.br/imovel/apartamento-4-quartos-boa-viagem-bairros-recife-com-garagem-138m2-venda-RS900000-id-84515583/", "garage": "2", "latitude": "-8.107489", "rooms": "4", "bathrooms": "5", "condominium_fee": "R$ 750", "address": "Rua Aviador Severiano Lins, 140 - Boa Viagem, Recife - PE", "area": "138"},
{"longitude": "-34.893042", "iptu": "1800", "price": "915000", "title": "Apartamento na Rua Aviador Severiano Lins, 140, Boa Viagem em Recife, por R$ 915.000 - VivaReal", "url": "https://www.vivareal.com.br/imovel/apartamento-4-quartos-boa-viagem-bairros-recife-com-garagem-138m2-venda-RS915000-id-84515589/", "garage": "2", "latitude": "-8.107489", "rooms": "4", "bathrooms": "5", "condominium_fee": "R$ 750", "address": "Rua Aviador Severiano Lins, 140 - Boa Viagem, Recife - PE", "area": "138"},
{"latitude": "-8.108419", "rooms": "3", "bathrooms": "3", "longitude": "-34.897301", "price": "620000", "address": "Rua Amaro Albino P\u00edmentel, 33 - Boa Viagem, Recife - PE", "title": "Apartamento na Rua Amaro Albino P\u00edmentel, 33, Boa Viagem em Recife, por R$ 620.000 - VivaReal", "url": "https://www.vivareal.com.br/imovel/apartamento-3-quartos-boa-viagem-bairros-recife-com-garagem-105m2-venda-RS620000-id-86967099/", "garage": "2", "area": "105"},
{"latitude": "-8.108419", "rooms": "3", "bathrooms": "3", "longitude": "-34.897301", "price": "621000", "address": "Rua Amaro Albino P\u00edmentel, 33 - Boa Viagem, Recife - PE", "title": "Apartamento na Rua Amaro Albino P\u00edmentel, 33, Boa Viagem em Recife, por R$ 621.000 - VivaReal", "url": "https://www.vivareal.com.br/imovel/apartamento-3-quartos-boa-viagem-bairros-recife-com-garagem-105m2-venda-RS621000-id-86967132/", "garage": "2", "area": "105"},
{"latitude": "-8.108419", "rooms": "3", "bathrooms": "3", "longitude": "-34.897301", "price": "622000", "address": "Rua Amaro Albino P\u00edmentel, 33 - Boa Viagem, Recife - PE", "title": "Apartamento na Rua Amaro Albino P\u00edmentel, 33, Boa Viagem em Recife, por R$ 622.000 - VivaReal", "url": "https://www.vivareal.com.br/imovel/apartamento-3-quartos-boa-viagem-bairros-recife-com-garagem-105m2-venda-RS622000-id-86967204/", "garage": "2", "area": "105"},
{"latitude": "-8.117759", "rooms": "1", "bathrooms": "1", "longitude": "-34.894344", "price": "300000", "address": "Rua dos Navegantes, 1706 - Boa Viagem, Recife - PE", "title": "Flat na Rua dos Navegantes, 1706, Boa Viagem em Recife, por R$ 300.000 - VivaReal", "url": "https://www.vivareal.com.br/imovel/flat-1-quartos-boa-viagem-bairros-recife-42m2-venda-RS300000-id-81461551/", "area": "42"},
{"longitude": "-34.905502", "iptu": "1500", "price": "805000", "title": "Apartamento na Rua Mario Souto Maior, 82, Boa Viagem em Recife, por R$ 805.000 - VivaReal", "url": "https://www.vivareal.com.br/imovel/apartamento-4-quartos-boa-viagem-bairros-recife-com-garagem-128m2-venda-RS805000-id-84780412/", "garage": "2", "latitude": "-8.141452", "rooms": "4", "bathrooms": "4", "condominium_fee": "R$ 850", "address": "Rua Mario Souto Maior, 82 - Boa Viagem, Recife - PE", "area": "128"},
{"longitude": "-34.886174", "iptu": "718", "price": "1770000", "title": "Apartamento na Rua Baltazar Pereira, 100, Boa Viagem em Recife, por R$ 1.770.000 - VivaReal", "url": "https://www.vivareal.com.br/imovel/apartamento-4-quartos-boa-viagem-bairros-recife-com-garagem-181m2-venda-RS1770000-id-86301341/", "garage": "3", "latitude": "-8.101112", "rooms": "4", "bathrooms": "5", "condominium_fee": "R$ 1.765", "address": "Rua Baltazar Pereira, 100 - Boa Viagem, Recife - PE", "area": "181"},
{"longitude": "-34.886174", "iptu": "718", "price": "1780000", "title": "Apartamento na Rua Baltazar Pereira, 100, Boa Viagem em Recife, por R$ 1.780.000 - VivaReal", "url": "https://www.vivareal.com.br/imovel/apartamento-4-quartos-boa-viagem-bairros-recife-com-garagem-181m2-venda-RS1780000-id-86301343/", "garage": "3", "latitude": "-8.101112", "rooms": "4", "bathrooms": "5", "condominium_fee": "R$ 1.765", "address": "Rua Baltazar Pereira, 100 - Boa Viagem, Recife - PE", "area": "181"},
{"longitude": "-34.886174", "iptu": "718", "price": "1790000", "title": "Apartamento na Rua Baltazar Pereira, 100, Boa Viagem em Recife, por R$ 1.790.000 - VivaReal", "url": "https://www.vivareal.com.br/imovel/apartamento-4-quartos-boa-viagem-bairros-recife-com-garagem-181m2-venda-RS1790000-id-86301347/", "garage": "3", "latitude": "-8.101112", "rooms": "4", "bathrooms": "5", "condominium_fee": "R$ 1.765", "address": "Rua Baltazar Pereira, 100 - Boa Viagem, Recife - PE", "area": "181"},
{"longitude": "-34.886174", "iptu": "718", "price": "1789000", "title": "Apartamento na Rua Baltazar Pereira, 100, Boa Viagem em Recife, por R$ 1.789.000 - VivaReal", "url": "https://www.vivareal.com.br/imovel/apartamento-4-quartos-boa-viagem-bairros-recife-com-garagem-181m2-venda-RS1789000-id-86301382/", "garage": "3", "latitude": "-8.101112", "rooms": "4", "bathrooms": "5", "condominium_fee": "R$ 1.765", "address": "Rua Baltazar Pereira, 100 - Boa Viagem, Recife - PE", "area": "181"},
{"longitude": "-34.886634", "iptu": "2500", "price": "1155000", "title": "Apartamento na Rua Dom\u00edcio Rangel, 82, Boa Viagem em Recife, por R$ 1.155.000 - VivaReal", "url": "https://www.vivareal.com.br/imovel/apartamento-3-quartos-boa-viagem-bairros-recife-com-garagem-128m2-venda-RS1155000-id-83683740/", "garage": "2", "latitude": "-8.102178", "rooms": "3", "bathrooms": "4", "condominium_fee": "R$ 900", "address": "Rua Dom\u00edcio Rangel, 82 - Boa Viagem, Recife - PE", "area": "128"},
{"latitude": "-8.109342", "rooms": "3", "bathrooms": "3", "longitude": "-34.898112", "price": "600000", "address": "Rua Amaro Albino P\u00edmentel - Boa Viagem, Recife - PE", "title": "Apartamento na Rua Amaro Albino P\u00edmentel, Boa Viagem em Recife, por R$ 600.000 - VivaReal", "url": "https://www.vivareal.com.br/imovel/apartamento-3-quartos-boa-viagem-bairros-recife-com-garagem-100m2-venda-RS600000-id-86421264/", "garage": "2", "area": "100"},
{"longitude": "-34.9065", "iptu": "1800", "price": "465000", "title": "Apartamento na Rua Set\u00fabal, 1630, Boa Viagem em Recife, por R$ 465.000 - VivaReal", "url": "https://www.vivareal.com.br/imovel/apartamento-3-quartos-boa-viagem-bairros-recife-com-garagem-100m2-venda-RS465000-id-73616683/", "garage": "2", "latitude": "-8.14596", "rooms": "3", "bathrooms": "3", "condominium_fee": "R$ 830", "address": "Rua Set\u00fabal, 1630 - Boa Viagem, Recife - PE", "area": "100"},
{"longitude": "-34.892896", "iptu": "1", "price": "900000", "title": "Apartamento na Rua Aviador Severiano Lins, 137, Boa Viagem em Recife, por R$ 900.000 - VivaReal", "url": "https://www.vivareal.com.br/imovel/apartamento-4-quartos-boa-viagem-bairros-recife-com-garagem-137m2-venda-RS900000-id-83832898/", "garage": "2", "latitude": "-8.107587", "rooms": "4", "bathrooms": "4", "condominium_fee": "R$ 1", "address": "Rua Aviador Severiano Lins, 137 - Boa Viagem, Recife - PE", "area": "137"},
{"longitude": "-34.892545", "iptu": "1", "price": "910000", "title": "Apartamento na Rua Aviador Severiano Lins, 18, Boa Viagem em Recife, por R$ 910.000 - VivaReal", "url": "https://www.vivareal.com.br/imovel/apartamento-4-quartos-boa-viagem-bairros-recife-com-garagem-150m2-venda-RS910000-id-85059914/", "garage": "3", "latitude": "-8.106533", "rooms": "4", "bathrooms": "5", "condominium_fee": "R$ 1", "address": "Rua Aviador Severiano Lins, 18 - Boa Viagem, Recife - PE", "area": "150"},
{"longitude": "-34.906748", "iptu": "1", "price": "285000", "title": "Apartamento na Rua S\u00e1 e Souza, 19, Boa Viagem em Recife, por R$ 285.000 - VivaReal", "url": "https://www.vivareal.com.br/imovel/apartamento-2-quartos-boa-viagem-bairros-recife-com-garagem-55m2-venda-RS285000-id-87055928/", "garage": "1", "latitude": "-8.132232", "rooms": "2", "bathrooms": "2", "condominium_fee": "R$ 1", "address": "Rua S\u00e1 e Souza, 19 - Boa Viagem, Recife - PE", "area": "55"},
{"latitude": "-8.114823", "rooms": "3", "bathrooms": "3", "longitude": "-34.897323", "price": "900000", "address": "Rua Ant\u00f4nio Falc\u00e3o - Boa Viagem, Recife - PE", "title": "Apartamento na Rua Ant\u00f4nio Falc\u00e3o, Boa Viagem em Recife, por R$ 900.000 - VivaReal", "url": "https://www.vivareal.com.br/imovel/apartamento-3-quartos-boa-viagem-bairros-recife-com-garagem-120m2-venda-RS900000-id-77096932/", "garage": "2", "area": "120"},
{"url": "https://www.vivareal.com.br/imovel/apartamento-1-quartos-boa-viagem-bairros-recife-com-garagem-50m2-venda-RS280000-id-84637896/", "rooms": "1", "bathrooms": "1", "condominium_fee": "R$ 505", "address": "Boa Viagem, Recife - PE", "title": "Apartamento 50 m\u00b2 em Boa Viagem em Recife, por R$ 280.000 - VivaReal", "price": "280000", "garage": "1", "area": "50"},
{"latitude": "-8.11397", "rooms": "3", "bathrooms": "3", "longitude": "-34.892754", "price": "651468", "address": "Rua Tenente Jo\u00e3o C\u00edcero, 52 - Boa Viagem, Recife - PE", "title": "Apartamento na Rua Tenente Jo\u00e3o C\u00edcero, 52, Boa Viagem em Recife, por R$ 651.468 - VivaReal", "url": "https://www.vivareal.com.br/imovel/apartamento-3-quartos-boa-viagem-bairros-recife-com-garagem-91m2-venda-RS651468-id-84514805/", "garage": "2", "area": "91"},
{"latitude": "-8.11397", "rooms": "3", "bathrooms": "3", "longitude": "-34.892754", "price": "614425", "address": "Rua Tenente Jo\u00e3o C\u00edcero, 52 - Boa Viagem, Recife - PE", "title": "Apartamento na Rua Tenente Jo\u00e3o C\u00edcero, 52, Boa Viagem em Recife, por R$ 614.425 - VivaReal", "url": "https://www.vivareal.com.br/imovel/apartamento-3-quartos-boa-viagem-bairros-recife-com-garagem-91m2-venda-RS614425-id-84514861/", "garage": "2", "area": "91"},
{"latitude": "-8.108716", "rooms": "3", "bathrooms": "3", "longitude": "-34.897586", "price": "599900", "address": "Rua Amaro Albino P\u00edmentel, 100 - Boa Viagem, Recife - PE", "title": "Apartamento na Rua Amaro Albino P\u00edmentel, 100, Boa Viagem em Recife, por R$ 599.900 - VivaReal", "url": "https://www.vivareal.com.br/imovel/apartamento-3-quartos-boa-viagem-bairros-recife-com-garagem-105m2-venda-RS599900-id-84664065/", "garage": "2", "area": "105"},
{"latitude": "-8.140649", "rooms": "3", "bathrooms": "3", "longitude": "-34.9097", "price": "620000", "address": "Rua General Salgado, 476 - Boa Viagem, Recife - PE", "title": "Apartamento na Rua General Salgado, 476, Boa Viagem em Recife, por R$ 620.000 - VivaReal", "url": "https://www.vivareal.com.br/imovel/apartamento-3-quartos-boa-viagem-bairros-recife-com-garagem-92m2-venda-RS620000-id-85607689/", "garage": "2", "area": "92"},
{"latitude": "-8.110726", "rooms": "4", "bathrooms": "3", "longitude": "-34.893363", "condominium_fee": "R$ 811", "address": "Rua Professor Rui Batista, 78 - Boa Viagem, Recife - PE", "title": "Apartamento na Rua Professor Rui Batista, 78, Boa Viagem em Recife, por R$ 1.250.000 - VivaReal", "url": "https://www.vivareal.com.br/imovel/apartamento-4-quartos-boa-viagem-bairros-recife-com-garagem-135m2-venda-RS1250000-id-84887554/", "garage": "2", "area": "135", "price": "1250000"},
{"latitude": "-8.110726", "rooms": "4", "bathrooms": "3", "longitude": "-34.893363", "condominium_fee": "R$ 811", "address": "Rua Professor Rui Batista, 78 - Boa Viagem, Recife - PE", "title": "Apartamento na Rua Professor Rui Batista, 78, Boa Viagem em Recife, por R$ 1.125.000 - VivaReal", "url": "https://www.vivareal.com.br/imovel/apartamento-4-quartos-boa-viagem-bairros-recife-com-garagem-135m2-venda-RS1125000-id-84887537/", "garage": "2", "area": "135", "price": "1125000"},
{"latitude": "-8.110726", "rooms": "4", "bathrooms": "3", "longitude": "-34.893363", "condominium_fee": "R$ 811", "address": "Rua Professor Rui Batista, 78 - Boa Viagem, Recife - PE", "title": "Apartamento na Rua Professor Rui Batista, 78, Boa Viagem em Recife, por R$ 1.115.000 - VivaReal", "url": "https://www.vivareal.com.br/imovel/apartamento-4-quartos-boa-viagem-bairros-recife-com-garagem-135m2-venda-RS1115000-id-84887544/", "garage": "2", "area": "135", "price": "1115000"},
{"longitude": "-34.892545", "iptu": "1", "price": "900000", "title": "Apartamento na Rua Aviador Severiano Lins, 18, Boa Viagem em Recife, por R$ 900.000 - VivaReal", "url": "https://www.vivareal.com.br/imovel/apartamento-4-quartos-boa-viagem-bairros-recife-com-garagem-137m2-venda-RS900000-id-84295281/", "garage": "2", "latitude": "-8.106533", "rooms": "4", "bathrooms": "6", "condominium_fee": "R$ 1", "address": "Rua Aviador Severiano Lins, 18 - Boa Viagem, Recife - PE", "area": "137"},
{"latitude": "-8.114786", "rooms": "3", "bathrooms": "2", "longitude": "-34.901662", "price": "729000", "address": "Rua Pedro Paes Mendon\u00e7a, 140 - Boa Viagem, Recife - PE", "title": "Apartamento na Rua Pedro Paes Mendon\u00e7a, 140, Boa Viagem em Recife, por R$ 729.000 - VivaReal", "url": "https://www.vivareal.com.br/imovel/apartamento-3-quartos-boa-viagem-bairros-recife-com-garagem-100m2-venda-RS729000-id-84441182/", "garage": "2", "area": "100"},
{"latitude": "-8.13359", "rooms": "2", "bathrooms": "2", "longitude": "-34.909182", "price": "275000", "address": "Rua Viriato Correia - Boa Viagem, Recife - PE", "title": "Apartamento na Rua Viriato Correia, Boa Viagem em Recife, por R$ 275.000 - VivaReal", "url": "https://www.vivareal.com.br/imovel/apartamento-2-quartos-boa-viagem-bairros-recife-com-garagem-47m2-venda-RS275000-id-86650067/", "garage": "1", "area": "47"},
{"longitude": "-34.884117", "iptu": "1", "price": "2660000", "title": "Apartamento na Avenida Boa Viagem, 826, Boa Viagem em Recife, por R$ 2.660.000 - VivaReal", "url": "https://www.vivareal.com.br/imovel/apartamento-4-quartos-boa-viagem-bairros-recife-com-garagem-155m2-venda-RS2660000-id-85456398/", "garage": "3", "latitude": "-8.098885", "rooms": "4", "bathrooms": "6", "condominium_fee": "R$ 1.450", "address": "Avenida Boa Viagem, 826 - Boa Viagem, Recife - PE", "area": "155"},